name,latitude,longitude,address,tags
Bubba Gump Shrimp Company,41.8914114,-87.6096584,"East Grand Avenue, Chicago","{'addr:city': 'Chicago', 'addr:housenumber': '600', 'addr:postcode': '60611', 'addr:state': 'IL', 'addr:street': 'East Grand Avenue', 'amenity': 'restaurant', 'brand': 'Bubba Gump Shrimp Company', 'brand:wikidata': 'Q50024', 'cuisine': 'seafood', 'name': 'Bubba Gump Shrimp Company', 'wheelchair': 'yes'}"
Pizano's Pizza & Pasta,41.8819751,-87.6256688,"East Madison Street, Chicago","{'addr:city': 'Chicago', 'addr:housenumber': '61', 'addr:postcode': '60603', 'addr:state': 'IL', 'addr:street': 'East Madison Street', 'amenity': 'restaurant', 'cuisine': 'pizza;pasta', 'name': ""Pizano's Pizza & Pasta"", 'opening_hours': 'Mo-Su 11:00-24:00', 'phone': '+1-312-236-1777', 'website': 'https://www.pizanoschicago.com/locations/chicago-loop/'}"
Eleven City Diner,41.8686597,-87.6260919,"South Wabash Avenue, Chicago","{'addr:city': 'Chicago', 'addr:housenumber': '1112', 'addr:postcode': '60605', 'addr:state': 'IL', 'addr:street': 'South Wabash Avenue', 'amenity': 'restaurant', 'name': 'Eleven City Diner', 'url': 'http://www.elevencitydiner.com/'}"
The Berghoff Restaurant,41.8793454,-87.6284801,"West Adams Street, Chicago","{'addr:city': 'Chicago', 'addr:housenumber': '17', 'addr:postcode': '60603', 'addr:state': 'IL', 'addr:street': 'West Adams Street', 'amenity': 'restaurant', 'check_date': '2024-10-20', 'cuisine': 'german', 'ele': '182', 'gnis:feature_id': '1825882', 'name': 'The Berghoff Restaurant', 'opening_hours': 'Mo-Fr 11:00-21:00; Sa 11:30-21:00', 'phone': '+1 312-427-3170', 'source': 'USGS Geonames', 'website': 'https://www.theberghoff.com/', 'wikidata': 'Q7716549', 'wikipedia': 'en:The Berghoff (restaurant)'}"
Shui Wah,41.853516,-87.6347244,"N/A, N/A","{'amenity': 'restaurant', 'cuisine': 'chinese', 'name': 'Shui Wah'}"
Nick's Fishmarket Grill,41.8889423,-87.6357074,"N/A, N/A","{'amenity': 'restaurant', 'name': ""Nick's Fishmarket Grill""}"
Jason's Deli,41.8854801,-87.6293303,"N/A, N/A","{'amenity': 'restaurant', 'brand': ""Jason's Deli"", 'brand:wikidata': 'Q16997641', 'cuisine': 'sandwich', 'name': ""Jason's Deli""}"
Timothy O’Toole’s Pub,41.8932428,-87.6204681,"North Fairbanks Court, Chicago","{'addr:city': 'Chicago', 'addr:housenumber': '622', 'addr:postcode': '60611', 'addr:state': 'IL', 'addr:street': 'North Fairbanks Court', 'amenity': 'restaurant', 'name': 'Timothy O’Toole’s Pub', 'phone': '+1-312-642-0700', 'website': 'http://www.timothyotooles.com/', 'wheelchair': 'no'}"
Fraternelli's Pizza,41.8346893,-87.633,"N/A, Chicago","{'addr:city': 'Chicago', 'addr:postcode': '60616', 'addr:state': 'IL', 'amenity': 'restaurant', 'cuisine': 'pizza', 'name': ""Fraternelli's Pizza""}"
Pazzo's,41.877514,-87.6354221,"South Wacker Drive, Chicago","{'addr:city': 'Chicago', 'addr:housenumber': '311', 'addr:postcode': '60606', 'addr:state': 'IL', 'addr:street': 'South Wacker Drive', 'amenity': 'restaurant', 'cuisine': 'italian', 'name': ""Pazzo's"", 'website': 'https://pazzoschicago.com/'}"
Market Creations,41.8846515,-87.6237671,"N/A, N/A","{'amenity': 'restaurant', 'name': 'Market Creations'}"
Wildberry Pancakes and Cafe,41.8846784,-87.6228175,"N/A, N/A","{'amenity': 'restaurant', 'cuisine': 'breakfast', 'diet:vegetarian': 'yes', 'name': 'Wildberry Pancakes and Cafe', 'opening_hours': '06:30-14:30', 'phone': '+1-312-938-9777'}"
Pizza Capri,41.7993839,-87.5889162,"N/A, N/A","{'amenity': 'restaurant', 'cuisine': 'italian', 'name': 'Pizza Capri'}"
Valois,41.7996838,-87.5883288,"N/A, N/A","{'amenity': 'restaurant', 'cuisine': 'american', 'name': 'Valois'}"
Kinzie Chophouse,41.8892942,-87.6341972,"North Wells Street, Chicago","{'addr:city': 'Chicago', 'addr:housenumber': '400', 'addr:postcode': '60654', 'addr:state': 'IL', 'addr:street': 'North Wells Street', 'amenity': 'restaurant', 'cuisine': 'steak_house;steak', 'name': 'Kinzie Chophouse', 'opening_hours': 'Mo-Th 11:00-22:00; Fr 11:00-23:00; Sa 16:00-23:00; Su 16:00-21:00', 'phone': '+1-312-822-0191', 'source': 'http://kinziechophouse.com', 'website': 'https://www.kinziechophouse.com/'}"
Chicago Cut Steakhouse,41.8881786,-87.6333711,"North LaSalle Boulevard, Chicago","{'addr:city': 'Chicago', 'addr:housenumber': '300', 'addr:postcode': '60654', 'addr:state': 'IL', 'addr:street': 'North LaSalle Boulevard', 'amenity': 'restaurant', 'cuisine': 'steak_house;steak;seafood;fine_dining', 'name': 'Chicago Cut Steakhouse', 'opening_hours': 'Mo-Fr 07:00-02:00; Sa-Su 10:00-02:00', 'phone': '+1-312-329-1800', 'website': 'http://www.chicagocutsteakhouse.com'}"
Giordano's Pizzeria,41.8779989,-87.6347343,"West Jackson Boulevard, Chicago","{'addr:city': 'Chicago', 'addr:housenumber': '223', 'addr:postcode': '60606', 'addr:state': 'IL', 'addr:street': 'West Jackson Boulevard', 'amenity': 'restaurant', 'brand': ""Giordano's Pizzeria"", 'brand:wikidata': 'Q5563393', 'cuisine': 'pizza', 'name': ""Giordano's Pizzeria"", 'name:ko': '지오다노스', 'opening_hours': 'Mo-Th 11:00-22:00; Fr-Sa 11:00-23:00; Su 11:00-22:00', 'phone': '+1-312-583-9400', 'source': 'survey', 'website': 'https://giordanos.com/locations/downtown-central-loop'}"
India House,41.891439,-87.630394,"West Grand Avenue, Chicago","{'addr:city': 'Chicago', 'addr:housenumber': '59', 'addr:postcode': '60654', 'addr:state': 'IL', 'addr:street': 'West Grand Avenue', 'amenity': 'restaurant', 'cuisine': 'indian', 'name': 'India House', 'opening_hours': 'Mo-Th 11:00-14:30,17:00-22:00; Fr 11:00-14:30,17:00-23:00; Sa 11:00-15:00,17:00-23:00; Su 11:00-15:00,17:00-22:00', 'phone': '+1-312-645-9500', 'source': 'survey', 'website': 'http://indiahousechicago.com/', 'website:menu': 'https://order.toasttab.com/online/india-house-restaurant-chicago-59-w-grand-ave'}"
Terzo Piano,41.8800158,-87.6223457,"N/A, N/A","{'amenity': 'restaurant', 'cuisine': 'italian', 'name': 'Terzo Piano'}"
Taza,41.8853746,-87.6355874,"North Franklin Street, N/A","{'addr:housenumber': '176', 'addr:postcode': '60606', 'addr:street': 'North Franklin Street', 'amenity': 'restaurant', 'cuisine': 'italian', 'name': 'Taza', 'source': '(312) 201-9885', 'website': 'http://www.tazacafechicago.com/'}"
Eggy's,41.8854088,-87.6188393,"East Benton Place, Chicago","{'addr:city': 'Chicago', 'addr:housenumber': '333', 'addr:postcode': '60601', 'addr:state': 'IL', 'addr:street': 'East Benton Place', 'amenity': 'restaurant', 'cuisine': 'diner', 'diet:vegetarian': 'yes', 'name': ""Eggy's"", 'phone': '+1-773-234-3449', 'source': 'survey', 'website': 'https://www.eggysdiner.com/locations/chicago/'}"
Miller’s Pub,41.8798242,-87.62636,"South Wabash Avenue, Chicago","{'addr:city': 'Chicago', 'addr:housenumber': '134', 'addr:postcode': '60603', 'addr:state': 'IL', 'addr:street': 'South Wabash Avenue', 'amenity': 'restaurant', 'check_date': '2024-10-20', 'contact:website': 'http://millerspub.com', 'name': 'Miller’s Pub', 'phone': '+1 312-263-4988', 'website': 'http://millerspub.com'}"
Caffè Oliva,41.893123,-87.6128059,"East Grand Avenue, N/A","{'addr:housename': 'Caffè Oliva', 'addr:housenumber': '550', 'addr:postcode': '60611', 'addr:street': 'East Grand Avenue', 'amenity': 'restaurant', 'cuisine': 'international', 'name': 'Caffè Oliva', 'outdoor_seating': 'only', 'source': 'www.caffeoliva.com', 'website': 'https://www.caffeoliva.com/'}"
Lou Malnati's Pizzeria,41.8715532,-87.6273394,"South State Street, Chicago","{'addr:city': 'Chicago', 'addr:housenumber': '805', 'addr:postcode': '60605', 'addr:state': 'IL', 'addr:street': 'South State Street', 'amenity': 'restaurant', 'branch': 'South Loop', 'brand': ""Lou Malnati's Pizzeria"", 'brand:wikidata': 'Q6685628', 'cuisine': 'pizza', 'name': ""Lou Malnati's Pizzeria"", 'opening_hours': 'Mo-Th, Su 11:00-23:00; Fr, Sa 11:00-00:00', 'phone': '+1-312-786-1000', 'website': 'https://www.loumalnatis.com/'}"
Yolk - South Loop,41.8688255,-87.6245382,"South Michigan Avenue, Chicago","{'addr:city': 'Chicago', 'addr:housenumber': '1120', 'addr:postcode': '60605', 'addr:state': 'IL', 'addr:street': 'South Michigan Avenue', 'amenity': 'restaurant', 'cuisine': 'breakfast', 'diet:vegetarian': 'yes', 'name': 'Yolk - South Loop', 'phone': '+1-312-789-9655', 'website': 'https://eatyolk.com/'}"
Noodles Etc,41.791333,-87.5934223,"East 57th Street, Chicago","{'addr:city': 'Chicago', 'addr:housenumber': '1333', 'addr:postcode': '60637', 'addr:state': 'IL', 'addr:street': 'East 57th Street', 'amenity': 'restaurant', 'cuisine': 'asian', 'name': 'Noodles Etc', 'website': 'http://noodlesetc.com'}"
Cafe 333,41.8863143,-87.635621,"West Wacker Drive, Chicago","{'addr:city': 'Chicago', 'addr:housenumber': '333', 'addr:postcode': '60606', 'addr:state': 'IL', 'addr:street': 'West Wacker Drive', 'amenity': 'restaurant', 'name': 'Cafe 333'}"
Goodwin's,41.8858838,-87.6360264,"West Wacker Drive, Chicago","{'addr:city': 'Chicago', 'addr:housenumber': '333', 'addr:postcode': '60606', 'addr:state': 'IL', 'addr:street': 'West Wacker Drive', 'amenity': 'restaurant', 'name': ""Goodwin's""}"
Dirty Tiff's Cafe,41.8091967,-87.6200842,"East 47th Street, Chicago","{'addr:city': 'Chicago', 'addr:housenumber': '225', 'addr:postcode': '60653', 'addr:state': 'IL', 'addr:street': 'East 47th Street', 'amenity': 'restaurant', 'name': ""Dirty Tiff's Cafe"", 'phone': '+17739663451', 'website': 'http://www.dirtytiffscafe.com/'}"
Smoke Signals BBQ,41.7644262,-87.6246375,"South State Street, N/A","{'addr:housenumber': '7137', 'addr:postcode': '60619', 'addr:street': 'South State Street', 'amenity': 'restaurant', 'cuisine': 'barbecue', 'name': 'Smoke Signals BBQ'}"
Pastoral,41.8856398,-87.6258796,"East Lake Street, Chicago","{'addr:city': 'Chicago', 'addr:housenumber': '53', 'addr:postcode': '60601', 'addr:state': 'IL', 'addr:street': 'East Lake Street', 'amenity': 'restaurant', 'name': 'Pastoral', 'opening_hours': 'Mo-Fr 10:30-20:00; Sa 11:00-18:00', 'phone': '+1-312-658-1250', 'website': 'https://www.pastoralartisan.com/'}"
Noodles & Company,41.8810741,-87.6305135,"South Clark Street, Chicago","{'addr:city': 'Chicago', 'addr:housenumber': '47', 'addr:postcode': '60603', 'addr:state': 'IL', 'addr:street': 'South Clark Street', 'amenity': 'restaurant', 'brand': 'Noodles & Company', 'brand:wikidata': 'Q7049673', 'cuisine': 'pasta', 'name': 'Noodles & Company', 'website': 'https://www.noodles.com/'}"
Grill Room,41.8806134,-87.6286511,"N/A, N/A","{'amenity': 'restaurant', 'name': 'Grill Room'}"
Eppy's Deli,41.8849897,-87.6355762,"N/A, N/A","{'amenity': 'restaurant', 'cuisine': 'sandwich', 'name': ""Eppy's Deli""}"
La Cocina,41.885424,-87.6355896,"North Franklin Street, N/A","{'addr:housenumber': '178', 'addr:street': 'North Franklin Street', 'amenity': 'restaurant', 'cuisine': 'mexican', 'name': 'La Cocina'}"
Noodles & Company,41.8814165,-87.6351174,"N/A, N/A","{'amenity': 'restaurant', 'brand': 'Noodles & Company', 'brand:wikidata': 'Q7049673', 'cuisine': 'pasta', 'name': 'Noodles & Company'}"
Freshii,41.8806526,-87.6267258,"N/A, N/A","{'amenity': 'restaurant', 'brand': 'Freshii', 'brand:wikidata': 'Q5503051', 'cuisine': 'salad', 'name': 'Freshii'}"
Weber Grill,41.8920577,-87.6278696,"North State Street, Chicago","{'addr:city': 'Chicago', 'addr:country': 'US', 'addr:housenumber': '539', 'addr:postcode': '60654', 'addr:state': 'IL', 'addr:street': 'North State Street', 'amenity': 'restaurant', 'cuisine': 'steak;burger;ribs', 'name': 'Weber Grill', 'opening_hours': 'Mo-Fr 06:30-10:00; Mo-Th 11:00-23:00; Fr 11:00-00:00; Sa-Su 06:30-11:00; Sa 11:30-00:00; Su 11:30-23:00', 'phone': '+1-312-467-9696', 'website': 'https://www.webergrillrestaurant.com/'}"
Nile Restaurant,41.7951799,-87.5971262,"East 55th Street, Chicago","{'addr:city': 'Chicago', 'addr:housenumber': '1162', 'addr:postcode': '60615', 'addr:state': 'IL', 'addr:street': 'East 55th Street', 'amenity': 'restaurant', 'cuisine': 'kebab;middle_eastern', 'diet:halal': 'yes', 'name': 'Nile Restaurant'}"
Petterino's,41.8846009,-87.6296591,"North Dearborn Street, Chicago","{'addr:city': 'Chicago', 'addr:country': 'US', 'addr:housenumber': '150', 'addr:postcode': '60601', 'addr:state': 'IL', 'addr:street': 'North Dearborn Street', 'amenity': 'restaurant', 'cuisine': 'italian', 'name': ""Petterino's"", 'phone': '+1-312-422-0150', 'website': 'https://www.petterinos.com/'}"
Bar Louie,41.8887361,-87.629404,"North Dearborn Street, Chicago","{'addr:city': 'Chicago', 'addr:housenumber': '333-335', 'addr:postcode': '60654', 'addr:state': 'IL', 'addr:street': 'North Dearborn Street', 'amenity': 'restaurant', 'cuisine': 'american', 'name': 'Bar Louie', 'opening_hours': 'Mo-Su 11:00-02:00', 'phone': '+1-312-863-2363', 'url': 'http://www.barlouieamerica.com/', 'website': 'https://www.barlouie.com/'}"
NYC Bagel Deli,41.8914217,-87.6294449,"North Clark Street, Chicago","{'addr:city': 'Chicago', 'addr:country': 'US', 'addr:housenumber': '515', 'addr:postcode': '60654', 'addr:state': 'IL', 'addr:street': 'North Clark Street', 'amenity': 'restaurant', 'cuisine': 'sandwich', 'name': 'NYC Bagel Deli', 'opening_hours': 'Mo-Fr 05:30-20:00; Sa 06:00-20:00; Su 06:00-16:00', 'url': 'http://www.nycbd.com/'}"
"Joe's Seafood, Prime Steak & Stone Crab",41.8918646,-87.6256252,"East Grand Avenue, Chicago","{'addr:city': 'Chicago', 'addr:country': 'US', 'addr:housenumber': '60', 'addr:postcode': '60611', 'addr:state': 'IL', 'addr:street': 'East Grand Avenue', 'amenity': 'restaurant', 'cuisine': 'steak;seafood;fine_dining', 'name': ""Joe's Seafood, Prime Steak & Stone Crab"", 'opening_hours': 'Mo-Th 11:30-23:00; Fr 11:30-00:00; Sa 11:00-00:00; Su 11:00-22:30', 'phone': '+1-312-379-5637', 'website': 'https://www.joes.net/'}"
Quartino Ristorante,41.8934348,-87.6283059,"North State Street, Chicago","{'addr:city': 'Chicago', 'addr:housenumber': '626', 'addr:postcode': '60654', 'addr:state': 'IL', 'addr:street': 'North State Street', 'amenity': 'restaurant', 'cuisine': 'tapas;pizza;pasta', 'name': 'Quartino Ristorante', 'opening_hours': 'Mo-Fr 11:30-02:00; Sa 11:30-03:00; Su 11:30-01:00', 'phone': '+1-312-698-5000', 'website': 'https://www.quartinochicago.com/', 'wheelchair': 'yes'}"
Crave Cafe and Lounge,41.8670718,-87.6243199,"South Michigan Avenue, N/A","{'addr:housenumber': '1250', 'addr:street': 'South Michigan Avenue', 'amenity': 'restaurant', 'cuisine': 'comfort_food', 'name': 'Crave Cafe and Lounge'}"
Thai Urban Kitchen,41.8821639,-87.6399799,"N/A, N/A","{'amenity': 'restaurant', 'cuisine': 'thai', 'name': 'Thai Urban Kitchen', 'website': 'http://www.thaiurbankitchen.com/'}"
California Pizza Kitchen,41.8926488,-87.6264363,"East Ohio Street, Chicago","{'addr:city': 'Chicago', 'addr:housenumber': '52', 'addr:postcode': '60611', 'addr:state': 'IL', 'addr:street': 'East Ohio Street', 'amenity': 'restaurant', 'brand': 'California Pizza Kitchen', 'brand:wikidata': 'Q15109854', 'cuisine': 'pizza', 'internet_access': 'wlan', 'internet_access:fee': 'no', 'name': 'California Pizza Kitchen', 'short_name': 'CPK', 'website': 'https://www.cpk.com/'}"
Sweetwater,41.8865103,-87.6242243,"N/A, N/A","{'amenity': 'restaurant', 'name': 'Sweetwater'}"
Hoyt's,41.8873013,-87.6259485,"N/A, N/A","{'amenity': 'restaurant', 'name': ""Hoyt's"", 'opening_hours': 'Su,Mo 06:30-14:00, Tu-Th 06:30-23:00, Fr,Sa 06:30-24:00', 'wheelchair': 'yes'}"
McCormick & Schmick's,41.8866171,-87.627223,"N/A, N/A","{'amenity': 'restaurant', 'brand': ""McCormick & Schmick's"", 'brand:wikidata': 'Q6800562', 'cuisine': 'seafood;steak', 'name': ""McCormick & Schmick's""}"
Emerald Loop,41.8863702,-87.6265173,"North Wabash Avenue, Chicago","{'addr:city': 'Chicago', 'addr:housenumber': '216', 'addr:postcode': '60601', 'addr:state': 'IL', 'addr:street': 'North Wabash Avenue', 'amenity': 'restaurant', 'name': 'Emerald Loop', 'phone': '+1-312-263-0200', 'website': 'https://emeraldloop.com/'}"
Oasis Cafe,41.8826872,-87.6259327,"North Wabash Avenue, Chicago","{'addr:city': 'Chicago', 'addr:housenumber': '21', 'addr:postcode': '60602', 'addr:state': 'IL', 'addr:street': 'North Wabash Avenue', 'amenity': 'restaurant', 'cuisine': 'mediterranean', 'name': 'Oasis Cafe', 'opening_hours': 'Mo-Fr 10:00-17:30; Sa 11:00-16:00', 'phone': '+1-312-443-9534'}"
Atwood,41.8830549,-87.6281296,"West Washington Street, Chicago","{'addr:city': 'Chicago', 'addr:housenumber': '1', 'addr:postcode': '60602', 'addr:state': 'IL', 'addr:street': 'West Washington Street', 'amenity': 'restaurant', 'name': 'Atwood', 'phone': '+1-312-368-1900', 'website': 'https://atwoodrestaurant.com/'}"
Wow Bao,41.8859644,-87.6282313,"N/A, N/A","{'amenity': 'restaurant', 'cuisine': 'asian', 'name': 'Wow Bao', 'phone': '+13126580305'}"
State and Lake Chicago Tavern,41.8862145,-87.6277289,"North State Street, Chicago","{'addr:city': 'Chicago', 'addr:housenumber': '201', 'addr:postcode': '60601', 'addr:state': 'IL', 'addr:street': 'North State Street', 'amenity': 'restaurant', 'cuisine': 'american', 'name': 'State and Lake Chicago Tavern', 'phone': '+1-312-239-9400', 'website': 'https://stateandlakechicago.com/'}"
Protein Bar,41.8858837,-87.6286906,"N/A, N/A","{'amenity': 'restaurant', 'name': 'Protein Bar'}"
Chicago Curry House,41.8707557,-87.6283739,"South Plymouth Court, Chicago","{'addr:city': 'Chicago', 'addr:housenumber': '899', 'addr:postcode': '60605', 'addr:state': 'IL', 'addr:street': 'South Plymouth Court', 'amenity': 'restaurant', 'check_date': '2022-09-16', 'cuisine': 'indian', 'name': 'Chicago Curry House', 'phone': '+1 312-362-9999', 'website': 'https://curryhouseonline.com/', 'website:menu': 'https://curryhouseonline.com/menu'}"
Mezza Mediterranean Grill,41.8821849,-87.6388681,"N/A, N/A","{'amenity': 'restaurant', 'cuisine': 'mediterranean', 'level': '2', 'name': 'Mezza Mediterranean Grill'}"
Yolk,41.8821339,-87.6409831,"West Madison Street, Chicago","{'addr:city': 'Chicago', 'addr:housenumber': '500', 'addr:postcode': '60661', 'addr:state': 'IL', 'addr:street': 'West Madison Street', 'amenity': 'restaurant', 'cuisine': 'breakfast', 'name': 'Yolk', 'website': 'https://eatyolk.com/'}"
Coco Pazzo,41.8900946,-87.6357331,"West Hubbard Street, Chicago","{'addr:city': 'Chicago', 'addr:housenumber': '300', 'addr:postcode': '60654', 'addr:state': 'IL', 'addr:street': 'West Hubbard Street', 'amenity': 'restaurant', 'cuisine': 'italian;pizza', 'name': 'Coco Pazzo', 'not:brand:wikidata': 'Q65084369', 'opening_hours': 'Mo-Fr 11:30-14:30, Mo-Th 17:00-22:00, Fr-Sa 17:00-22:30, Su 17:00-21:30', 'phone': '+1-312-836-0900', 'website': 'https://www.cocopazzochicago.com/'}"
Jefa's Cantina,41.8739784,-87.6294588,"South Dearborn Street, Chicago","{'addr:city': 'Chicago', 'addr:housenumber': '610', 'addr:postcode': '60605', 'addr:state': 'IL', 'addr:street': 'South Dearborn Street', 'amenity': 'restaurant', 'cuisine': 'mexican', 'name': ""Jefa's Cantina""}"
The Purple Pig,41.8907486,-87.624603,"North Michigan Avenue, Chicago","{'addr:city': 'Chicago', 'addr:housenumber': '444', 'addr:postcode': '60611', 'addr:state': 'IL', 'addr:street': 'North Michigan Avenue', 'amenity': 'restaurant', 'cuisine': 'american', 'name': 'The Purple Pig', 'opening_hours': 'Mo-Su 11:00-22:00', 'phone': '+1-312-464-1744', 'phone:mnemonic': '+1-312-464-1-PIG', 'website': 'https://thepurplepigchicago.com/'}"
Grand Lux Cafe,41.8931299,-87.6247284,"North Michigan Avenue, Chicago","{'addr:city': 'Chicago', 'addr:housenumber': '600', 'addr:postcode': '60611', 'addr:state': 'IL', 'addr:street': 'North Michigan Avenue', 'amenity': 'restaurant', 'cuisine': 'american', 'name': 'Grand Lux Cafe', 'opening_hours': 'Mo-Fr 11:00-23:30; Sa 09:00-00:30; Su 09:00-23:30', 'phone': '+1-312-276-2500', 'website': 'https://www.grandluxcafe.com/'}"
Chef's Burger Bistro,41.8919137,-87.6229257,"N/A, N/A","{'amenity': 'restaurant', 'cuisine': 'burger', 'name': ""Chef's Burger Bistro""}"
Protein Bar,41.8791383,-87.6350816,"N/A, N/A","{'amenity': 'restaurant', 'name': 'Protein Bar'}"
Phoenix,41.8535449,-87.6329633,"South Archer Avenue, Chicago","{'addr:city': 'Chicago', 'addr:housenumber': '2131', 'addr:postcode': '60616', 'addr:state': 'IL', 'addr:street': 'South Archer Avenue', 'amenity': 'restaurant', 'cuisine': 'chinese', 'name': 'Phoenix'}"
Townhouse Restaurant & Wine Bar,41.8800934,-87.6365256,"South Wacker Drive, Chicago","{'addr:city': 'Chicago', 'addr:housenumber': '111', 'addr:postcode': '60606', 'addr:state': 'IL', 'addr:street': 'South Wacker Drive', 'amenity': 'restaurant', 'name': 'Townhouse Restaurant & Wine Bar'}"
Indian Garden,41.8932431,-87.6208409,"East Ontario Street, Chicago","{'addr:city': 'Chicago', 'addr:housenumber': '247', 'addr:postcode': '60611', 'addr:street': 'East Ontario Street', 'amenity': 'restaurant', 'cuisine': 'indian', 'name': 'Indian Garden', 'phone': '+1 312-280-4910', 'website': 'https://www.indiangardenchicago.com/', 'website:menu': 'https://www.indiangardenchicago.com/menu'}"
Dao,41.8927469,-87.6215023,"N/A, N/A","{'amenity': 'restaurant', 'cuisine': 'thai', 'name': 'Dao'}"
Emilios Tapas,41.8923735,-87.6211134,"N/A, N/A","{'amenity': 'restaurant', 'cuisine': 'spanish', 'name': 'Emilios Tapas'}"
Tre Soldi,41.8927289,-87.622079,"N/A, N/A","{'amenity': 'restaurant', 'cuisine': 'italian', 'name': 'Tre Soldi'}"
Gyu-Kaku,41.8927269,-87.6222426,"East Ohio Street, Chicago","{'addr:city': 'Chicago', 'addr:housenumber': '210', 'addr:postcode': '60611', 'addr:state': 'IL', 'addr:street': 'East Ohio Street', 'amenity': 'restaurant', 'brand': 'Gyu-Kaku', 'brand:wikidata': 'Q11349387', 'cuisine': 'japanese;barbecue', 'name': 'Gyu-Kaku', 'phone': '+1-312-266-8929', 'website': 'https://www.gyu-kaku.com'}"
Robert's Pizza Company,41.8924901,-87.618341,"N/A, N/A","{'amenity': 'restaurant', 'cuisine': 'pizza', 'name': ""Robert's Pizza Company""}"
Sable Kitchen & Bar,41.8910524,-87.6273558,"North State Street, Chicago","{'addr:city': 'Chicago', 'addr:housenumber': '505', 'addr:postcode': '60654', 'addr:state': 'IL', 'addr:street': 'North State Street', 'addr:unit': '101', 'amenity': 'restaurant', 'name': 'Sable Kitchen & Bar', 'opening_hours': 'Mo-Fr 07:00-10:30, 16:00-02:00; Sa 08:00-02:00; Su 08:00-00:00', 'phone': '+1-312-755-9704', 'website': 'https://sablechicago.com/'}"
Xoco,41.8906926,-87.6309133,"North Clark Street, Chicago","{'addr:city': 'Chicago', 'addr:housenumber': '449', 'addr:postcode': '60654', 'addr:state': 'IL', 'addr:street': 'North Clark Street', 'amenity': 'restaurant', 'cuisine': 'mexican', 'name': 'Xoco', 'opening_hours': 'Tu-Th 08:00-21:00; Fr-Sa 08:00-22:00', 'phone': '+1-312-661-1434', 'website': 'https://www.rickbayless.com/restaurants/xoco/'}"
Topolobampo,41.8906247,-87.630916,"North Clark Street, Chicago","{'addr:city': 'Chicago', 'addr:housenumber': '445', 'addr:postcode': '60654', 'addr:state': 'IL', 'addr:street': 'North Clark Street', 'amenity': 'restaurant', 'cuisine': 'mexican;fine_dining', 'name': 'Topolobampo', 'opening_hours': 'Tu-Fr 11:30-14:00; Tu-Th 17:30-21:30; Fr-Sa 17:30-22:30', 'phone': '+1-312-661-1434', 'website': 'https://www.rickbayless.com/restaurants/topolobampo/'}"
Frontera Grill,41.8905369,-87.6309213,"North Clark Street, Chicago","{'addr:city': 'Chicago', 'addr:housenumber': '445', 'addr:postcode': '60654', 'addr:state': 'IL', 'addr:street': 'North Clark Street', 'amenity': 'restaurant', 'cuisine': 'mexican', 'name': 'Frontera Grill', 'opening_hours': 'Tu-Fr 11:30-14:30; Tu-Th 17:00-22:00; Fr 17:00-23:00; Sa 10:30-14:00, 17:00-23:00', 'phone': '+1-312-661-1434', 'website': 'https://www.rickbayless.com/restaurants/frontera-grill/', 'wheelchair': 'yes', 'wikidata': 'Q5505941'}"
Lao Sze Chuan,41.8913956,-87.6244867,"N/A, N/A","{'amenity': 'restaurant', 'cuisine': 'chinese', 'name': 'Lao Sze Chuan'}"
Oysy,41.8918368,-87.6260809,"East Grand Avenue, Chicago","{'addr:city': 'Chicago', 'addr:housenumber': '50', 'addr:postcode': '60611', 'addr:state': 'IL', 'addr:street': 'East Grand Avenue', 'amenity': 'restaurant', 'cuisine': 'sushi', 'name': 'Oysy', 'opening_hours': 'Mo-Th 11:30-22:00; Fr 11:30-23:00; Sa 12:00-23:00; Su 12:00-21:30', 'phone': '+1-312-670-6750', 'website': 'http://oysysushi.com/'}"
Sayat Nova,41.8924171,-87.6232272,"East Ohio Street, N/A","{'addr:housenumber': '157', 'addr:postcode': '60611', 'addr:street': 'East Ohio Street', 'amenity': 'restaurant', 'cuisine': 'armenian', 'name': 'Sayat Nova', 'opening_hours': 'We-Su 16:00-21:00', 'phone': '+1-312-644-9159', 'website': 'https://sayatnovachicago.com/'}"
The Park Grill,41.8826848,-87.6235979,"North Michigan Avenue, N/A","{'addr:housenumber': '11', 'addr:street': 'North Michigan Avenue', 'addr:street:name': 'Michigan', 'addr:street:prefix': 'North', 'addr:street:type': 'Avenue', 'amenity': 'restaurant', 'name': 'The Park Grill', 'wikidata': 'Q7137749', 'wikipedia': 'en:Park Grill'}"
Naf Naf Grill,41.8830851,-87.6356904,"West Washington Street, Chicago","{'addr:city': 'Chicago', 'addr:housenumber': '309', 'addr:postcode': '60606', 'addr:state': 'IL', 'addr:street': 'West Washington Street', 'amenity': 'restaurant', 'brand': 'Naf Naf Grill', 'brand:wikidata': 'Q111901442', 'cuisine': 'middle_eastern', 'name': 'Naf Naf Grill', 'opening_hours': 'Mo-Th 11:00-20:00; Fr 11:00-18:00', 'takeaway': 'yes'}"
Ramen MisoYa,41.8924038,-87.6212638,"N/A, N/A","{'amenity': 'restaurant', 'name': 'Ramen MisoYa'}"
Bongiorno's Cucina Italiana & Pizzeria,41.8897038,-87.6259049,"North Wabash Avenue, Chicago","{'addr:city': 'Chicago', 'addr:housenumber': '405', 'addr:postcode': '60611', 'addr:state': 'IL', 'addr:street': 'North Wabash Avenue', 'amenity': 'restaurant', 'cuisine': 'pizza;italian', 'name': ""Bongiorno's Cucina Italiana & Pizzeria"", 'opening_hours': 'Mo-Sa 10:00-22:00; Su 12:00-21:00', 'phone': '+1-312-755-1255', 'website': 'http://www.bongiornoschicago.com/'}"
Burger Bar Chicago - South Loop,41.867869,-87.624376,"South Michigan Avenue, Chicago","{'addr:city': 'Chicago', 'addr:country': 'US', 'addr:housenumber': '1150', 'addr:postcode': '60605', 'addr:state': 'IL', 'addr:street': 'South Michigan Avenue', 'amenity': 'restaurant', 'cuisine': 'burger', 'name': 'Burger Bar Chicago - South Loop', 'phone': '+1-312-988-0162', 'website': 'https://burgerbarchicago.com/'}"
Ajida,41.8858587,-87.6337936,"North Wells Street, Chicago","{'addr:city': 'Chicago', 'addr:country': 'US', 'addr:housenumber': '201', 'addr:postcode': '60606', 'addr:state': 'IL', 'addr:street': 'North Wells Street', 'amenity': 'restaurant', 'cuisine': 'japanese', 'name': 'Ajida', 'takeaway': 'yes', 'wheelchair': 'yes'}"
Pinstripes,41.8909495,-87.6162491,"East Illinois Street, Chicago","{'addr:city': 'Chicago', 'addr:housenumber': '435', 'addr:postcode': '60611', 'addr:state': 'IL', 'addr:street': 'East Illinois Street', 'amenity': 'restaurant', 'name': 'Pinstripes', 'opening_hours': '11:30-23:00', 'phone': '+1-312-527-3010', 'takeaway': 'yes', 'website': 'https://pinstripes.com/chicago-illinois/', 'wheelchair': 'limited'}"
Salonica,41.7916126,-87.5901224,"East 57th Street, Chicago","{'addr:city': 'Chicago', 'addr:housenumber': '1440', 'addr:postcode': '60637', 'addr:state': 'IL', 'addr:street': 'East 57th Street', 'amenity': 'restaurant', 'name': 'Salonica'}"
Cedars Mediterranean Kitchen,41.7999989,-87.5961219,"East 53rd Street, Chicago","{'addr:city': 'Chicago', 'addr:housenumber': '1206', 'addr:postcode': '60615', 'addr:state': 'IL', 'addr:street': 'East 53rd Street', 'amenity': 'restaurant', 'cuisine': 'mediterranean', 'name': 'Cedars Mediterranean Kitchen', 'opening_hours': 'Mo-Su 11:00-21:00, Fr-Sa 11:00-22:00', 'website': 'https://www.eatcedars.com/'}"
Nando's,41.799405,-87.5899259,"East 53rd Street, Chicago","{'addr:city': 'Chicago', 'addr:housenumber': '1447', 'addr:postcode': '60615', 'addr:state': 'IL', 'addr:street': 'East 53rd Street', 'amenity': 'restaurant', 'brand': ""Nando's"", 'brand:wikidata': 'Q3472954', 'cuisine': 'chicken;portuguese', 'name': ""Nando's"", 'website': 'https://www.nandosperiperi.com/find/hyde-park/'}"
Rajun Cajun,41.799425,-87.5895057,"East 53rd Street, Chicago","{'addr:city': 'Chicago', 'addr:housenumber': '1459', 'addr:postcode': '60615', 'addr:state': 'IL', 'addr:street': 'East 53rd Street', 'amenity': 'restaurant', 'cuisine': 'indian', 'name': 'Rajun Cajun', 'opening_hours': 'Mo-Sa 11:00-20:00', 'phone': '7739551145', 'website': 'https://www.rajuncajunhp.com', 'website:menu': 'https://www.rajuncajunhp.com/menus'}"
Chant,41.7993874,-87.5886383,"East 53rd Street, Chicago","{'addr:city': 'Chicago', 'addr:housenumber': '1509', 'addr:postcode': '60615', 'addr:state': 'IL', 'addr:street': 'East 53rd Street', 'amenity': 'restaurant', 'cuisine': 'asian', 'name': 'Chant'}"
Lyfe Kitchen,41.8935736,-87.6205048,"N/A, N/A","{'amenity': 'restaurant', 'name': 'Lyfe Kitchen'}"
Kanela Breakfast Club,41.8912617,-87.6149427,"East Illinois Street, Chicago","{'addr:city': 'Chicago', 'addr:housenumber': '502', 'addr:postcode': '60611', 'addr:state': 'IL', 'addr:street': 'East Illinois Street', 'amenity': 'restaurant', 'name': 'Kanela Breakfast Club', 'phone': '+1-312-380-0071', 'website': 'http://www.kanelabreakfastclub.com/', 'wheelchair': 'yes'}"
Niu Japanese Fusion,41.8912044,-87.6187447,"N/A, N/A","{'amenity': 'restaurant', 'cuisine': 'japanese', 'name': 'Niu Japanese Fusion'}"
The Dearborn,41.8842027,-87.6292577,"North Dearborn Street, Chicago","{'addr:city': 'Chicago', 'addr:housenumber': '145', 'addr:postcode': '60602', 'addr:state': 'IL', 'addr:street': 'North Dearborn Street', 'amenity': 'restaurant', 'cuisine': 'american', 'name': 'The Dearborn', 'opening_hours': 'Mo 11:00-22:00; Tu-Th 11:00-23:00; Fr 11:00-00:00; Sa 10:00-00:00; Su 10:00-22:00', 'phone': '+1-312-384-1242', 'website': 'https://www.thedearborntavern.com/'}"
Tortoise Supper Club,41.8887672,-87.6283097,"North State Street, Chicago","{'addr:city': 'Chicago', 'addr:housenumber': '350', 'addr:postcode': '60654', 'addr:state': 'IL', 'addr:street': 'North State Street', 'amenity': 'restaurant', 'cuisine': 'american', 'internet_access': 'wlan', 'name': 'Tortoise Supper Club', 'opening_hours': 'Tu-Th 16:30-21:00; Fr,Sa 17:00-22:00', 'outdoor_seating': 'no', 'phone': '+1-312-755-1700', 'website': 'https://www.tortoisesupperclub.com/'}"
The Kitchen,41.8879048,-87.6312178,"North Clark Street, Chicago","{'addr:city': 'Chicago', 'addr:housenumber': '316', 'addr:postcode': '60654', 'addr:state': 'IL', 'addr:street': 'North Clark Street', 'amenity': 'restaurant', 'cuisine': 'american', 'name': 'The Kitchen', 'opening_hours': 'Mo-Su 11:00-22:00', 'phone': '+1-312-836-1300', 'website': 'https://www.thekitchen.com/location/the-kitchen-bistros-chicago/'}"
Cafecito,41.8758316,-87.6262874,"East Ida B. Wells Drive, Chicago","{'addr:city': 'Chicago', 'addr:housenumber': '26', 'addr:postcode': '60605', 'addr:state': 'IL', 'addr:street': 'East Ida B. Wells Drive', 'amenity': 'restaurant', 'name': 'Cafecito', 'phone': '+1-312-922-2233', 'website': 'http://www.cafecitochicago.com/'}"
Shaw’s Crab House,41.8898798,-87.6271532,"East Hubbard Street, Chicago","{'addr:city': 'Chicago', 'addr:housenumber': '21', 'addr:postcode': '60611', 'addr:state': 'IL', 'addr:street': 'East Hubbard Street', 'amenity': 'restaurant', 'name': 'Shaw’s Crab House', 'phone': '+1-312-527-2722', 'website': 'http://shawscrabhouse.com/chicago/', 'wikidata': 'Q6533864', 'wikipedia': 'en:Lettuce Entertain You Enterprises'}"
P.F. Chang's,41.8918574,-87.626919,"North Wabash Avenue, Chicago","{'addr:city': 'Chicago', 'addr:housenumber': '530', 'addr:postcode': '60611', 'addr:state': 'IL', 'addr:street': 'North Wabash Avenue', 'amenity': 'restaurant', 'brand': ""P.F. Chang's"", 'brand:wikidata': 'Q5360181', 'cuisine': 'asian', 'name': ""P.F. Chang's"", 'name:en': ""P.F. Chang's"", 'official_name': ""P.F. Chang's China Bistro""}"
Old Crow Smokehouse - River North,41.8890598,-87.6331472,"West Kinzie Street, Chicago","{'addr:city': 'Chicago', 'addr:housenumber': '149', 'addr:postcode': '60654', 'addr:state': 'IL', 'addr:street': 'West Kinzie Street', 'amenity': 'restaurant', 'cuisine': 'barbecue', 'name': 'Old Crow Smokehouse - River North', 'opening_hours': 'Su-Th 11:00-00:00; Fr 11:00-02:00; Sa 11:00-03:00', 'phone': '+1-773-348-8899', 'website': 'https://oldcrowsmokehouse.com/'}"
Acanto,41.8815293,-87.624671,"South Michigan Avenue, Chicago","{'addr:city': 'Chicago', 'addr:housenumber': '18', 'addr:postcode': '60603', 'addr:state': 'IL', 'addr:street': 'South Michigan Avenue', 'amenity': 'restaurant', 'name': 'Acanto', 'phone': '+1-312-578-0763', 'website': 'https://www.acantochicago.com/'}"
Seven Lions,41.8783913,-87.6250859,"South Michigan Avenue, N/A","{'addr:housenumber': '130', 'addr:street': 'South Michigan Avenue', 'amenity': 'restaurant', 'name': 'Seven Lions', 'website': 'https://sevenlionschicago.com/'}"
The Gage,41.8812422,-87.6246693,"South Michigan Avenue, Chicago","{'addr:city': 'Chicago', 'addr:housenumber': '24', 'addr:postcode': '60603', 'addr:state': 'IL', 'addr:street': 'South Michigan Avenue', 'amenity': 'restaurant', 'cuisine': 'american', 'name': 'The Gage', 'opening_hours': 'Mo 11:00-00:00; Tu-We 11:00-02:00; Th 11:00-00:00; Fr 11:00-02:00; Sa 10:00-02:00; Su 10:00-00:00', 'phone': '+1-312-372-4243', 'website': 'https://www.thegagechicago.com/'}"
Rosebud Prime,41.8814165,-87.6289457,"N/A, N/A","{'amenity': 'restaurant', 'cuisine': 'steak_house', 'name': 'Rosebud Prime', 'name:en': 'Rosebud Prime'}"
Xurro,41.8914743,-87.6068822,"East Grand Avenue, Chicago","{'addr:city': 'Chicago', 'addr:housenumber': '600', 'addr:postcode': '60611', 'addr:state': 'IL', 'addr:street': 'East Grand Avenue', 'amenity': 'restaurant', 'contact:yelp': 'https://www.yelp.com/biz/porkchop-bbq-chicago-2', 'cuisine': 'mexican', 'name': 'Xurro', 'website': 'https://www.churrofactory.com/'}"
Riva Crabhouse,41.891302,-87.6046487,"East Grand Avenue, Chicago","{'addr:city': 'Chicago', 'addr:housenumber': '700', 'addr:postcode': '60611', 'addr:state': 'IL', 'addr:street': 'East Grand Avenue', 'amenity': 'restaurant', 'contact:tripadvisor': 'https://www.tripadvisor.com/ShowUserReviews-g35805-d142948-r243048173-Navy_Pier-Chicago_Illinois.html', 'contact:yelp': 'https://www.yelp.com/biz/riva-chicago', 'cuisine': 'seafood', 'name': 'Riva Crabhouse', 'phone': '+1-312-644-7482', 'website': 'https://www.rivanavypier.com/'}"
Brightwok Kitchen,41.8794015,-87.6267766,"East Adams Street, Chicago","{'addr:city': 'Chicago', 'addr:housenumber': '21', 'addr:postcode': '60603', 'addr:state': 'IL', 'addr:street': 'East Adams Street', 'amenity': 'restaurant', 'cuisine': 'asian', 'name': 'Brightwok Kitchen', 'opening_hours': 'Mo-Fr 11:00-20:00; Sa 11:30-20:00', 'phone': '+1-312-583-0729', 'website': 'https://brightwok.com/'}"
River Roast,41.8879519,-87.63228,"North La Salle Drive, Chicago","{'addr:city': 'Chicago', 'addr:housenumber': '315', 'addr:postcode': '60654', 'addr:state': 'IL', 'addr:street': 'North La Salle Drive', 'amenity': 'restaurant', 'cuisine': 'american', 'name': 'River Roast', 'name:en': 'River Roast', 'opening_hours': 'Mo-Th 11:30-22:00; Fr 11:30-23:00; Sa 11:00-23:00; Su 11:00-21:00', 'phone': '+1-312-822-0100', 'website': 'https://www.riverroastchicago.com/', 'wheelchair': 'yes'}"
Xi'an Cuisine,41.8526469,-87.6330884,"West Cermak Road, Chicago","{'addr:city': 'Chicago', 'addr:housenumber': '225', 'addr:postcode': '60616', 'addr:state': 'IL', 'addr:street': 'West Cermak Road', 'amenity': 'restaurant', 'cuisine': 'chinese', 'name': ""Xi'an Cuisine"", 'phone': '+1-312-326 3171', 'website': 'https://www.xiancuisinechicago.com/'}"
Remington’s,41.8826989,-87.624719,"North Michigan Avenue, Chicago","{'addr:city': 'Chicago', 'addr:housenumber': '20', 'addr:postcode': '60602', 'addr:state': 'IL', 'addr:street': 'North Michigan Avenue', 'amenity': 'restaurant', 'cuisine': 'steak_house;american', 'name': 'Remington’s', 'outdoor_seating': 'yes', 'phone': '+1-312-782-6000', 'takeaway': 'yes', 'website': 'https://www.remingtonschicago.com/'}"
Union Sushi + Barbeque Bar,41.8941897,-87.6353895,"West Erie Street, Chicago","{'addr:city': 'Chicago', 'addr:housenumber': '230', 'addr:postcode': '60654', 'addr:state': 'IL', 'addr:street': 'West Erie Street', 'amenity': 'restaurant', 'cuisine': 'sushi;barbecue', 'name': 'Union Sushi + Barbeque Bar', 'opening_hours': 'Mo-Fr 11:30-14:00; Mo-Th 17:00-22:00; Fr-Sa 17:00-23:00; Su 17:00-21:00', 'phone': '+1-312-662-4888', 'website': 'https://eatatunion.com/'}"
TGI Fridays,41.8940111,-87.6234149,"East Erie Street, Chicago","{'addr:city': 'Chicago', 'addr:housenumber': '153', 'addr:postcode': '60611', 'addr:state': 'IL', 'addr:street': 'East Erie Street', 'amenity': 'restaurant', 'brand': 'TGI Fridays', 'brand:wikidata': 'Q1524184', 'cuisine': 'american', 'name': 'TGI Fridays', 'name:en': 'TGI Fridays', 'website': 'https://locations.tgifridays.com/il/chicago/153-e-erie-st.html'}"
Ryo Sushi,41.8822253,-87.62549,"East Madison Street, Chicago","{'addr:city': 'Chicago', 'addr:housenumber': '62', 'addr:postcode': '60602', 'addr:state': 'IL', 'addr:street': 'East Madison Street', 'amenity': 'restaurant', 'cuisine': 'sushi;japanese', 'delivery': 'yes', 'name': 'Ryo Sushi', 'opening_hours': 'Mo-Sa 10:00-22:00; Su 11:00-21:30', 'outdoor_seating': 'yes', 'takeaway': 'yes'}"
Cocoro Restaurant,41.8944222,-87.6343649,"North Wells Street, Chicago","{'addr:city': 'Chicago', 'addr:housenumber': '668', 'addr:postcode': '60654', 'addr:state': 'IL', 'addr:street': 'North Wells Street', 'amenity': 'restaurant', 'check_date': '2023-08-03', 'cuisine': 'japanese;sushi', 'name': 'Cocoro Restaurant', 'opening_hours': 'Mo-Fr 11:30-14:00; Mo-Sa 17:30-22:00', 'phone': '+1-312-943-2220', 'website': 'https://www.cocorosushi.com/', 'wheelchair': 'yes'}"
Honeyberry Cafe,41.8703317,-87.6272526,"South State Street, Chicago","{'addr:city': 'Chicago', 'addr:housenumber': '901', 'addr:postcode': '60605', 'addr:state': 'IL', 'addr:street': 'South State Street', 'amenity': 'restaurant', 'name': 'Honeyberry Cafe', 'outdoor_seating': 'yes', 'phone': '+1 312-583-0333'}"
GT Fish & Oyster,41.8917392,-87.6337796,"North Wells Street, Chicago","{'addr:city': 'Chicago', 'addr:housenumber': '531', 'addr:postcode': '60654', 'addr:state': 'IL', 'addr:street': 'North Wells Street', 'amenity': 'restaurant', 'cuisine': 'seafood;tapas', 'name': 'GT Fish & Oyster', 'opening_hours': 'Su-Th 17:00-22:00; Tu-Fr 11:30-14:30; Sa-Su 10:00-14:30; Sa 16:30-23:00', 'phone': '+1-312-929-3501', 'website': 'https://www.gtoyster.com/'}"
Sunda,41.8909642,-87.6316624,"West Illinois Street, Chicago","{'addr:city': 'Chicago', 'addr:housenumber': '110', 'addr:postcode': '60654', 'addr:state': 'IL', 'addr:street': 'West Illinois Street', 'amenity': 'restaurant', 'cuisine': 'sushi;asian', 'name': 'Sunda', 'opening_hours': 'Mo-We 11:30-23:00; Fr 11:30-00:00; Sa-Su 10:30-15:00; Sa 16:00-00:00; Su 16:00-23:00', 'phone': '+1-312-644-0500', 'website': 'https://sundachicago.com/'}"
Bavette's Bar & Boeuf,41.889285,-87.6348919,"West Kinzie Street, Chicago","{'addr:city': 'Chicago', 'addr:housenumber': '218', 'addr:postcode': '60654', 'addr:state': 'IL', 'addr:street': 'West Kinzie Street', 'amenity': 'restaurant', 'cuisine': 'fine_dining;steak_house', 'name': ""Bavette's Bar & Boeuf"", 'opening_hours': 'Mo-Th 16:00-22:30; Fr-Sa 15:00-23:00; Su 15:00-22:30', 'phone': '+1-312-624-8154', 'website': 'http://bavetteschicago.com'}"
RPM Italian,41.8910437,-87.6299745,"West Illinois Street, Chicago","{'addr:city': 'Chicago', 'addr:housenumber': '52', 'addr:postcode': '60654', 'addr:state': 'IL', 'addr:street': 'West Illinois Street', 'amenity': 'restaurant', 'cuisine': 'italian;fine_dining', 'name': 'RPM Italian', 'opening_hours': 'Mo-Th 16:00-23:00; Fr 16:00-00:00; Sa 15:00-00:00; Su 12:00-23:00', 'phone': '+1-312-222-1888', 'website': 'http://rpmrestaurants.com/rpmitalian/chicago/'}"
Mediterranean Kitchen,41.8830226,-87.6343493,"West Washington Street, Chicago","{'addr:city': 'Chicago', 'addr:housenumber': '219', 'addr:postcode': '60606', 'addr:state': 'IL', 'addr:street': 'West Washington Street', 'amenity': 'restaurant', 'cuisine': 'mediterranean', 'name': 'Mediterranean Kitchen'}"
Saucy Porka,41.7952195,-87.5970509,"East 55th Street, Chicago","{'addr:city': 'Chicago', 'addr:housenumber': '1164', 'addr:postcode': '60615', 'addr:street': 'East 55th Street', 'amenity': 'restaurant', 'cuisine': 'asian;latin_american', 'name': 'Saucy Porka', 'phone': '+1 773 891 0429'}"
Flora Fauna,41.8905935,-87.6285195,"West Illinois Street, Chicago","{'addr:city': 'Chicago', 'addr:housenumber': '11', 'addr:postcode': '60654', 'addr:state': 'IL', 'addr:street': 'West Illinois Street', 'amenity': 'restaurant', 'cuisine': 'mexican;caribbean;asian', 'name': 'Flora Fauna', 'opening_hours': 'Tu-Th 17:00-22:00; Fr 11:30-14:00,17:00-23:00; Sa 10:00-14:00,17:00-23:00; Su 10:00-14:00,17:00-22:00', 'phone': '+1-312-624-9276', 'website': 'http://www.florafaunachicago.com/'}"
Smoque BBQ - The Sterling Food Hall,41.879657,-87.6301958,"South Clark Street, Chicago","{'addr:city': 'Chicago', 'addr:housenumber': '125', 'addr:postcode': '60603', 'addr:state': 'IL', 'addr:street': 'South Clark Street', 'amenity': 'restaurant', 'cuisine': 'barbecue', 'name': 'Smoque BBQ - The Sterling Food Hall', 'phone': '+1- 773-770-6232', 'website': 'https://www.smoquebbq.com/'}"
Freshii,41.8846002,-87.6342567,"West Randolph Street, Chicago","{'addr:city': 'Chicago', 'addr:housenumber': '200', 'addr:postcode': '60606', 'addr:state': 'IL', 'addr:street': 'West Randolph Street', 'amenity': 'restaurant', 'brand': 'Freshii', 'brand:wikidata': 'Q5503051', 'cuisine': 'salad', 'name': 'Freshii'}"
One North Kitchen,41.8823509,-87.6365945,"North Wacker Drive, Chicago","{'addr:city': 'Chicago', 'addr:housenumber': '1', 'addr:postcode': '60606', 'addr:state': 'IL', 'addr:street': 'North Wacker Drive', 'amenity': 'restaurant', 'check_date': '2023-08-07', 'name': 'One North Kitchen', 'website': 'https://www.onenorthchicago.com/'}"
Meli,41.8754048,-87.6294315,"N/A, N/A","{'amenity': 'restaurant', 'cuisine': 'american;italian', 'name': 'Meli', 'opening_hours': 'Mo-Th 07:00-22:00; Fr-Sa 07:00-00:00; Su 07:00-22:00', 'website': 'https://www.melicafe.com/'}"
Half Sour,41.872428,-87.6304237,"South Clark Street, Chicago","{'addr:city': 'Chicago', 'addr:housenumber': '755', 'addr:postcode': '60605', 'addr:state': 'IL', 'addr:street': 'South Clark Street', 'amenity': 'restaurant', 'name': 'Half Sour', 'phone': '+1-312-224-1772', 'website': 'https://halfsourchicago.com/'}"
Kurah Mediterranean,41.864555,-87.623821,"South Michigan Avenue, Chicago","{'addr:city': 'Chicago', 'addr:housenumber': '1355', 'addr:postcode': '60605', 'addr:state': 'IL', 'addr:street': 'South Michigan Avenue', 'amenity': 'restaurant', 'name': 'Kurah Mediterranean'}"
The Franklin Room,41.8945518,-87.635457,"North Franklin Street, Chicago","{'addr:city': 'Chicago', 'addr:housenumber': '675', 'addr:postcode': '60654', 'addr:state': 'IL', 'addr:street': 'North Franklin Street', 'amenity': 'restaurant', 'name': 'The Franklin Room', 'phone': '+1-312-445-4686', 'website': 'https://franklinroom.com/'}"
Triple Crown Restaurant,41.8524362,-87.6318723,"South Wentworth Avenue, Chicago","{'addr:city': 'Chicago', 'addr:housenumber': '2217', 'addr:postcode': '60616', 'addr:state': 'IL', 'addr:street': 'South Wentworth Avenue', 'amenity': 'restaurant', 'cuisine': 'chinese', 'name': 'Triple Crown Restaurant', 'opening_hours': 'Mo-Su 09:00-02:00', 'phone': '+1 (312) 842-0088', 'website': 'http://m.triplecrownchicago.com/'}"
Radio Room,41.889415,-87.6282309,"North State Street, Chicago","{'addr:city': 'Chicago', 'addr:housenumber': '400', 'addr:postcode': '60654', 'addr:state': 'IL', 'addr:street': 'North State Street', 'amenity': 'restaurant', 'check_date': '2023-08-07', 'cuisine': 'american;pub', 'name': 'Radio Room'}"
Dough Bros Pizzeria & Sub Shop,41.8895369,-87.6282314,"North State Street, Chicago","{'addr:city': 'Chicago', 'addr:housenumber': '400', 'addr:postcode': '60654', 'addr:state': 'IL', 'addr:street': 'North State Street', 'amenity': 'restaurant', 'check_date': '2023-08-07', 'cuisine': 'pizza', 'name': 'Dough Bros Pizzeria & Sub Shop', 'opening_hours': 'Su-We 11:00-00:00; Th 11:00-02:00; Fr-Sa 11:00-04:00', 'phone': '+1-312-600-9078', 'website': 'http://www.doughbrospizza.com/'}"
El Hefe Mexican Restaurant,41.8898872,-87.6286387,"West Hubbard Street, Chicago","{'addr:city': 'Chicago', 'addr:housenumber': '15', 'addr:postcode': '60654', 'addr:state': 'IL', 'addr:street': 'West Hubbard Street', 'amenity': 'restaurant', 'cuisine': 'mexican', 'name': 'El Hefe Mexican Restaurant', 'opening_hours': 'Mo-Fr 11:00-02:00; Sa 10:00-03:00; Su 10:00-02:00', 'phone': '+1-312-548-6841', 'website': 'http://elhefechicago.com/'}"
Imperial Lamian,41.8903874,-87.6282336,"West Hubbard Street, Chicago","{'addr:city': 'Chicago', 'addr:housenumber': '6', 'addr:postcode': '60654', 'addr:state': 'IL', 'addr:street': 'West Hubbard Street', 'amenity': 'restaurant', 'cuisine': 'chinese;asian', 'name': 'Imperial Lamian', 'opening_hours': 'Mo-Fr 11:30-22:00; Sa-Su 10:00-22:00', 'phone': '+1-312-595-9440', 'website': 'https://www.imperial-lamian.com/'}"
Benny's Chop House,41.890673,-87.6270304,"North Wabash Avenue, Chicago","{'addr:city': 'Chicago', 'addr:housenumber': '444', 'addr:postcode': '60611', 'addr:state': 'IL', 'addr:street': 'North Wabash Avenue', 'amenity': 'restaurant', 'cuisine': 'steak_house;steak;seafood;fine_dining', 'name': ""Benny's Chop House"", 'opening_hours': 'Mo-Su 11:30-23:30', 'phone': '+1-312-626-2444', 'website': 'https://www.bennyschophouse.com/'}"
Star of Siam,41.890681,-87.6274747,"East Illinois Street, Chicago","{'addr:city': 'Chicago', 'addr:housenumber': '11', 'addr:postcode': '60611', 'addr:state': 'IL', 'addr:street': 'East Illinois Street', 'addr:unit': '1', 'amenity': 'restaurant', 'cuisine': 'thai;asian', 'name': 'Star of Siam', 'opening_hours': 'Su-Th 11:00-22:00; Fr-Sa 11:00-23:00', 'phone': '+1-312-670-0100', 'website': 'https://www.starofsiamchicago.com/'}"
Eddie V’s Prime Seafood and Steaks,41.8916024,-87.625219,"North Rush Street, Chicago","{'addr:city': 'Chicago', 'addr:housenumber': '521', 'addr:postcode': '60611', 'addr:state': 'IL', 'addr:street': 'North Rush Street', 'amenity': 'restaurant', 'cuisine': 'seafood;fine_dining', 'name': 'Eddie V’s Prime Seafood and Steaks', 'opening_hours': 'Su-Th 16:00-22:00; Fr-Sa 16:00-23:00', 'outdoor_seating': 'no', 'phone': '+1-312-595-1114', 'website': 'https://www.eddiev.com/'}"
Fleming's,41.8922743,-87.6271377,"East Ohio Street, Chicago","{'addr:city': 'Chicago', 'addr:housenumber': '25', 'addr:postcode': '60611', 'addr:state': 'IL', 'addr:street': 'East Ohio Street', 'amenity': 'restaurant', 'brand': ""Fleming's"", 'brand:wikidata': 'Q5458552', 'cuisine': 'steak_house', 'name': ""Fleming's"", 'official_name': ""Fleming's Prime Steakhouse & Wine Bar"", 'opening_hours': 'Mo-Th 17:00-22:00; Fr-Sa 17:00-23:00; Su 16:00-21:00', 'phone': '+1-312-329-9463', 'website': 'https://www.flemingssteakhouse.com/'}"
Big Bowl,41.8926617,-87.6260433,"East Ohio Street, Chicago","{'addr:city': 'Chicago', 'addr:housenumber': '60', 'addr:postcode': '60611', 'addr:state': 'IL', 'addr:street': 'East Ohio Street', 'amenity': 'restaurant', 'cuisine': 'asian', 'name': 'Big Bowl', 'opening_hours': 'Mo-Th 11:30-22:00; Fr-Sa 11:30-23:00; Su 11:30-21:00', 'phone': '+1-312-951-1888', 'website': 'https://bigbowl.com/'}"
Steak 48,41.8929891,-87.6264886,"North Wabash Avenue, Chicago","{'addr:city': 'Chicago', 'addr:housenumber': '615', 'addr:postcode': '60611', 'addr:state': 'IL', 'addr:street': 'North Wabash Avenue', 'amenity': 'restaurant', 'cuisine': 'steak_house;steak', 'name': 'Steak 48', 'phone': '+1 312-266-4848', 'website': 'https://steak48.com/'}"
True Food Kitchen,41.8939282,-87.6286954,"West Erie Street, Chicago","{'addr:city': 'Chicago', 'addr:housenumber': '1', 'addr:postcode': '60654', 'addr:state': 'IL', 'addr:street': 'West Erie Street', 'amenity': 'restaurant', 'brand': 'True Food Kitchen', 'brand:wikidata': 'Q113488682', 'cuisine': 'american', 'diet:gluten_free': 'yes', 'diet:vegan': 'yes', 'diet:vegetarian': 'yes', 'name': 'True Food Kitchen', 'opening_hours': 'Mo-Th 11:00-22:00; Fr 11:00-23:00; Sa 10:00-23:00; Su 10:00-21:00', 'phone': '+1-312-204-6981', 'website': 'https://www.truefoodkitchen.com/chicago'}"
Portsmith,41.8942694,-87.6283372,"North State Street, Chicago","{'addr:city': 'Chicago', 'addr:housenumber': '660', 'addr:postcode': '60654', 'addr:state': 'IL', 'addr:street': 'North State Street', 'amenity': 'restaurant', 'cuisine': 'seafood;fine_dining', 'name': 'Portsmith', 'opening_hours': 'Mo-Fr 07:00-11:00, 11:30-14:00, 17:00-22:00; Sa-Su 08:00-14:00; Sa 17:00-22:00; Su 16:30-20:30', 'phone': '+1-312-202-6050', 'website': 'https://www.portsmithchicago.com/'}"
Bijan's Bistro,41.8942655,-87.6279262,"North State Street, Chicago","{'addr:city': 'Chicago', 'addr:housenumber': '663', 'addr:postcode': '60611', 'addr:state': 'IL', 'addr:street': 'North State Street', 'amenity': 'restaurant', 'cuisine': 'american', 'name': ""Bijan's Bistro"", 'opening_hours': 'Su-Fr 10:00-03:00; Sa 10:00-04:00', 'phone': '+1-312-202-1904', 'website': 'https://www.chicagobijansbistro.com/'}"
Chicago Raw,41.8947236,-87.6300231,"West Huron Street, Chicago","{'addr:city': 'Chicago', 'addr:housenumber': '51', 'addr:postcode': '60654', 'addr:state': 'IL', 'addr:street': 'West Huron Street', 'amenity': 'restaurant', 'cuisine': 'american;organic', 'diet:raw': 'yes', 'diet:vegan': 'yes', 'name': 'Chicago Raw', 'opening_hours': 'Mo-Su 07:00-21:00', 'organic': 'yes', 'outdoor_seating': 'no', 'phone': '+1-312-664-2729', 'website': 'https://www.chicagorawfood.com/'}"
Chicago Chop House,41.893521,-87.6304308,"West Ontario Street, Chicago","{'addr:city': 'Chicago', 'addr:housenumber': '60', 'addr:postcode': '60654', 'addr:state': 'IL', 'addr:street': 'West Ontario Street', 'amenity': 'restaurant', 'cuisine': 'steak_house;steak', 'name': 'Chicago Chop House', 'opening_hours': 'Su-Fr 16:00-02:00; Sa 16:00-03:00', 'phone': '+1-312-787-7100', 'website': 'https://chicagochophouse.com/'}"
Beatrix,41.8914724,-87.6307259,"North Clark Street, Chicago","{'addr:city': 'Chicago', 'addr:housenumber': '519', 'addr:postcode': '60654', 'addr:state': 'IL', 'addr:street': 'North Clark Street', 'amenity': 'restaurant', 'cuisine': 'american', 'name': 'Beatrix', 'opening_hours': 'Mo-Fr 07:00-23:00; Sa-Su 08:00-15:00', 'phone': '+1-312-284-1377', 'website': 'http://beatrixrestaurants.com/', 'wheelchair': 'yes'}"
Mastro's Steakhouse,41.8914844,-87.6298622,"North Dearborn Street, Chicago","{'addr:city': 'Chicago', 'addr:housenumber': '520', 'addr:postcode': '60654', 'addr:state': 'IL', 'addr:street': 'North Dearborn Street', 'amenity': 'restaurant', 'cuisine': 'steak_house;steak;seafood;fine_dining', 'name': ""Mastro's Steakhouse"", 'opening_hours': 'Mo-Su 17:00-00:00', 'phone': '+1-312-521-5100', 'website': 'https://www.mastrosrestaurants.com/'}"
Roka Akor - Chicago,41.8906817,-87.6313803,"North Clark Street, Chicago","{'addr:city': 'Chicago', 'addr:housenumber': '456', 'addr:postcode': '60654', 'addr:state': 'IL', 'addr:street': 'North Clark Street', 'amenity': 'restaurant', 'name': 'Roka Akor - Chicago', 'phone': '+1-312-477-7652', 'website': 'https://rokaakor.com/locations/chicago/'}"
Slurping Turtle,41.8902545,-87.6319006,"West Hubbard Street, Chicago","{'addr:city': 'Chicago', 'addr:housenumber': '116', 'addr:postcode': '60654', 'addr:state': 'IL', 'addr:street': 'West Hubbard Street', 'amenity': 'restaurant', 'cuisine': 'ramen;japanese', 'name': 'Slurping Turtle', 'opening_hours': 'Su-Th 11:30-22:00; Fr-Sa 11:30-23:00', 'phone': '+1-312-464-0466', 'website': 'http://slurpingturtle.com/chicago/'}"
Hubbard Inn,41.8902584,-87.6316003,"West Hubbard Street, Chicago","{'addr:city': 'Chicago', 'addr:housenumber': '110', 'addr:postcode': '60654', 'addr:state': 'IL', 'addr:street': 'West Hubbard Street', 'amenity': 'restaurant', 'cuisine': 'european', 'name': 'Hubbard Inn', 'opening_hours': 'Mo-Fr 11:00-02:00; Sa 10:00-03:00; Su 10:00-00:00'}"
Joy District Chicago,41.8902824,-87.6317505,"West Hubbard Street, Chicago","{'addr:city': 'Chicago', 'addr:housenumber': '112', 'addr:postcode': '60654', 'addr:state': 'IL', 'addr:street': 'West Hubbard Street', 'amenity': 'restaurant', 'cuisine': 'american', 'name': 'Joy District Chicago', 'opening_hours': 'Mo-Fr 16:00-02:00; Sa 16:00-03:00', 'phone': '+1-312-955-0339', 'website': 'https://www.joychicago.com/'}"
Ema,41.8910012,-87.6308546,"West Illinois Street, Chicago","{'addr:city': 'Chicago', 'addr:housenumber': '74', 'addr:postcode': '60654', 'addr:state': 'IL', 'addr:street': 'West Illinois Street', 'amenity': 'restaurant', 'cuisine': 'mediterranean', 'name': 'Ema', 'opening_hours': 'Mo-Th 11:30-22:00; Fr-Sa 11:30-23:00; Su 11:30-21:00', 'phone': '+1-312-527-5586', 'website': 'http://emachicago.com/', 'wheelchair': 'yes'}"
Hub 51,41.8898489,-87.6298703,"West Hubbard Street, Chicago","{'addr:city': 'Chicago', 'addr:housenumber': '51', 'addr:postcode': '60654', 'addr:state': 'IL', 'addr:street': 'West Hubbard Street', 'amenity': 'restaurant', 'cuisine': 'american', 'name': 'Hub 51', 'opening_hours': 'Mo-Th 11:00-23:00; Fr 11:00-02:00; Sa 10:00-03:00; Su 10:00-22:00', 'phone': '+1-312-828-0051', 'website': 'http://hub51chicago.com/'}"
Siena Tavern,41.8890792,-87.6298263,"West Kinzie Street, Chicago","{'addr:city': 'Chicago', 'addr:housenumber': '51', 'addr:postcode': '60654', 'addr:state': 'IL', 'addr:street': 'West Kinzie Street', 'amenity': 'restaurant', 'cuisine': 'pasta;italian;pizza', 'name': 'Siena Tavern', 'opening_hours': 'Mo-Fr 11:30-02:00; Sa 10:00-03:00; Su 10:00-02:00', 'phone': '+1-312-595-1322', 'website': 'http://www.sienatavern.com/'}"
Planta Queen,41.889685,-87.630767,"North Clark Street, Chicago","{'addr:city': 'Chicago', 'addr:housenumber': '413', 'addr:postcode': '60654', 'addr:state': 'IL', 'addr:street': 'North Clark Street', 'amenity': 'restaurant', 'diet:vegan': 'only', 'name': 'Planta Queen', 'opening_hours': 'Su-Th 11:30-22:00; Fr-Sa 11:30-23:00', 'phone': '+1-630-691-7238', 'website': 'https://www.plantarestaurants.com/'}"
RPM Steak,41.8893747,-87.6305913,"West Kinzie Street, Chicago","{'addr:city': 'Chicago', 'addr:housenumber': '66', 'addr:postcode': '60654', 'addr:state': 'IL', 'addr:street': 'West Kinzie Street', 'amenity': 'restaurant', 'name': 'RPM Steak', 'phone': '+1-312-284-4990', 'website': 'http://rpmrestaurants.com/rpmsteak/chicago/', 'wheelchair': 'yes'}"
Nonnina,41.8886929,-87.6312315,"North Clark Street, Chicago","{'addr:city': 'Chicago', 'addr:housenumber': '340', 'addr:postcode': '60654', 'addr:state': 'IL', 'addr:street': 'North Clark Street', 'amenity': 'restaurant', 'check_date': '2023-08-07', 'cuisine': 'italian', 'name': 'Nonnina', 'opening_hours': 'Mo-Th 11:00-22:30; Fr 11:00-23:00; Sa 17:00-23:00; Su 15:00-20:00', 'phone': '+1-312-822-0077', 'website': 'https://nonninachicago.com/'}"
Untitled Supper Club,41.8890762,-87.631681,"West Kinzie Street, Chicago","{'addr:city': 'Chicago', 'addr:housenumber': '111', 'addr:postcode': '60654', 'addr:state': 'IL', 'addr:street': 'West Kinzie Street', 'amenity': 'restaurant', 'cuisine': 'american', 'name': 'Untitled Supper Club', 'opening_hours': 'Mo 16:30-00:00; Tu-We 16:30-01:00; Th-Fr 16:30-02:00; Sa 16:30-03:00', 'phone': '+1-312-880-1511', 'website': 'https://www.untitledsupperclub.com/'}"
Havana Grill,41.8896818,-87.6314633,"North Clark Street, Chicago","{'addr:city': 'Chicago', 'addr:housenumber': '412', 'addr:postcode': '60654', 'addr:state': 'IL', 'addr:street': 'North Clark Street', 'amenity': 'restaurant', 'check_date': '2023-08-07', 'cuisine': 'latin_american', 'name': 'Havana Grill', 'opening_hours': 'Mo-Th 11:00-22:00; Fr 11:00-02:00; Sa 12:00-03:00; Su 16:00-02:00', 'phone': '+1-312-644-1900', 'website': 'https://www.havanachicago.com/'}"
Mercadito,41.8894067,-87.6319768,"West Kinzie Street, Chicago","{'addr:city': 'Chicago', 'addr:housenumber': '108', 'addr:postcode': '60654', 'addr:state': 'IL', 'addr:street': 'West Kinzie Street', 'amenity': 'restaurant', 'cuisine': 'mexican', 'name': 'Mercadito', 'opening_hours': 'Su-Mo 11:00-00:00; Tu 11:00-01:00; We 11:00-00:00; Th 11:00-01:00; Fr 11:00-02:00; Sa 11:00-03:00', 'phone': '+1-312-329-9555', 'website': 'https://www.mercaditorestaurants.com/'}"
Moe's Cantina River North,41.8890572,-87.6332026,"West Kinzie Street, Chicago","{'addr:city': 'Chicago', 'addr:housenumber': '155', 'addr:postcode': '60654', 'addr:state': 'IL', 'addr:street': 'West Kinzie Street', 'amenity': 'restaurant', 'cuisine': 'mexican', 'name': ""Moe's Cantina River North"", 'not:brand:wikidata': 'Q6889938', 'opening_hours': 'Su-We 11:00-00:00; Th-Fr 11:00-02:00; Sa 11:00-03:00', 'phone': '+1-312-245-2000', 'website': 'https://www.moescantina.com/'}"
Hannah's Bretzel,41.8897479,-87.6329435,"North La Salle Boulevard, Chicago","{'addr:city': 'Chicago', 'addr:housenumber': '400', 'addr:postcode': '60654', 'addr:state': 'IL', 'addr:street': 'North La Salle Boulevard', 'amenity': 'restaurant', 'cuisine': 'sandwich', 'name': ""Hannah's Bretzel"", 'opening_hours': 'Mo-Fr 07:00-19:00; Sa-Su 09:00-16:00', 'phone': '+1-312-621-1111', 'website': 'https://www.hannahsbretzel.com/', 'wheelchair': 'yes'}"
Highline Bar + Lounge,41.8890366,-87.6337487,"West Kinzie Street, Chicago","{'addr:city': 'Chicago', 'addr:housenumber': '169', 'addr:postcode': '60654', 'addr:state': 'IL', 'addr:street': 'West Kinzie Street', 'amenity': 'restaurant', 'name': 'Highline Bar + Lounge', 'opening_hours': 'Su-Fr 11:00-02:00; Sa 11:00-03:00', 'phone': '+1-312-533-2742', 'website': 'https://highlinebarchicago.com/'}"
Taco Joint,41.8933938,-87.6333459,"West Ontario Street, Chicago","{'addr:city': 'Chicago', 'addr:housenumber': '158', 'addr:postcode': '60654', 'addr:state': 'IL', 'addr:street': 'West Ontario Street', 'amenity': 'restaurant', 'cuisine': 'mexican;tacos', 'name': 'Taco Joint', 'opening_hours': 'Mo-Th 11:00-22:00; Fr-Sa 11:00-00:00; Su 11:00-21:00', 'phone': '+1-312-337-8226', 'website': 'https://www.tacojoint.com/'}"
Le Select,41.8911495,-87.6342632,"North Wells Street, Chicago","{'addr:city': 'Chicago', 'addr:housenumber': '504', 'addr:postcode': '60654', 'addr:state': 'IL', 'addr:street': 'North Wells Street', 'amenity': 'restaurant', 'name': 'Le Select', 'website': 'https://www.leselectchicago.com'}"
Tanta,41.8918045,-87.6320262,"West Grand Avenue, Chicago","{'addr:city': 'Chicago', 'addr:housenumber': '118', 'addr:postcode': '60654', 'addr:state': 'IL', 'addr:street': 'West Grand Avenue', 'amenity': 'restaurant', 'name': 'Tanta', 'opening_hours': 'Mo-Su 11:30-14:30, 17:00-22:00', 'phone': '+1-312-222-9700', 'website': 'https://www.tantachicago.com/'}"
Mr. Beef on Orleans,41.8944231,-87.6373733,"North Orleans Street, Chicago","{'addr:city': 'Chicago', 'addr:housenumber': '666', 'addr:postcode': '60654', 'addr:state': 'IL', 'addr:street': 'North Orleans Street', 'amenity': 'restaurant', 'cuisine': 'regional;italian', 'name': 'Mr. Beef on Orleans', 'opening_hours': 'Mo-Th 10:00-18:00; Fr 10:00-04:00; Sa 10:30-05:00', 'phone': '+1-312-337-8500'}"
Brunch,41.8937476,-87.6373553,"North Orleans Street, Chicago","{'addr:city': 'Chicago', 'addr:housenumber': '644', 'addr:postcode': '60654', 'addr:state': 'IL', 'addr:street': 'North Orleans Street', 'amenity': 'restaurant', 'cuisine': 'brunch;american', 'name': 'Brunch', 'opening_hours': 'Mo-Fr 07:00-15:00; Sa-Su 08:00-16:00', 'phone': '+1-312-265-1411', 'website': 'https://www.brunchit.com/'}"
SIFR,41.8941144,-87.6373493,"North Orleans Street, Chicago","{'addr:city': 'Chicago', 'addr:housenumber': '660', 'addr:postcode': '60654', 'addr:state': 'IL', 'addr:street': 'North Orleans Street', 'amenity': 'restaurant', 'cuisine': 'middle_eastern', 'name': 'SIFR', 'opening_hours': 'Mo-Th 17:00-22:00; Fr-Sa 17:00-23:00', 'phone': '+1-464-204-8711', 'website': 'https://www.sifrchicago.com/'}"
Meli Cafe,41.8917434,-87.6342963,"North Wells Street, Chicago","{'addr:city': 'Chicago', 'addr:housenumber': '540', 'addr:postcode': '60654', 'addr:state': 'IL', 'addr:street': 'North Wells Street', 'amenity': 'restaurant', 'cuisine': 'american', 'name': 'Meli Cafe', 'opening_hours': 'Mo-Su 07:00-15:00', 'phone': '+1-312-527-1850', 'website': 'https://www.melicafe.com/'}"
The Hampton Social - River North,41.889785,-87.6376935,"West Hubbard Street, Chicago","{'addr:city': 'Chicago', 'addr:housenumber': '353', 'addr:postcode': '60654', 'addr:state': 'IL', 'addr:street': 'West Hubbard Street', 'amenity': 'restaurant', 'check_date': '2024-05-28', 'cuisine': 'seafood;american', 'name': 'The Hampton Social - River North', 'opening_hours': 'Mo-Tu 11:00-22:00; We-Th 11:00-23:00; Fr 11:00-00:00; Sa 10:00-00:00; Su 10:00-22:00', 'phone': '+1-312-464-0500', 'website': 'https://www.thehamptonsocial.com/'}"
Edie's All Day Cafe & Bar,41.8900951,-87.6377144,"West Hubbard Street, Chicago","{'addr:city': 'Chicago', 'addr:housenumber': '354', 'addr:postcode': '60654', 'addr:state': 'IL', 'addr:street': 'West Hubbard Street', 'amenity': 'restaurant', 'name': ""Edie's All Day Cafe & Bar"", 'phone': '+1 (312) 584-3396', 'website': 'https://www.ediescafebar.com'}"
Hutch American Cafe,41.8933455,-87.6391791,"West Ontario Street, Chicago","{'addr:city': 'Chicago', 'addr:housenumber': '416', 'addr:postcode': '60654', 'addr:state': 'IL', 'addr:street': 'West Ontario Street', 'amenity': 'restaurant', 'cuisine': 'american', 'name': 'Hutch American Cafe', 'opening_hours': 'Mo-Su 08:00-15:00', 'phone': '+1-312-300-4195', 'website': 'https://www.hutchchicago.com/'}"
Bar Cargo,41.8926684,-87.6339185,"North Wells Street, Chicago","{'addr:city': 'Chicago', 'addr:housenumber': '605', 'addr:postcode': '60654', 'addr:state': 'IL', 'addr:street': 'North Wells Street', 'amenity': 'restaurant', 'cuisine': 'pizza;italian', 'name': 'Bar Cargo', 'opening_hours': 'Mo-Th 11:30-23:00; Fr 11:30-02:00; Sa 11:00-02:00; Su 11:00-22:00', 'phone': '+1-312-929-0065', 'website': 'https://www.barcargo.com/', 'wheelchair': 'yes'}"
Beacon Tavern,41.8897293,-87.6256466,"North Wabash Avenue, Chicago","{'addr:city': 'Chicago', 'addr:housenumber': '405', 'addr:postcode': '60611', 'addr:state': 'IL', 'addr:street': 'North Wabash Avenue', 'amenity': 'restaurant', 'cuisine': 'american;pub', 'name': 'Beacon Tavern', 'opening_hours': 'Mo-We 11:00-22:00; Th-Fr 11:00-23:00; Sa 10:00-23:00; Su 10:00-22:00', 'outdoor_seating': 'no', 'phone': '+1-312-955-4226', 'website': 'http://beacontavern.com/'}"
Brindille,41.8918879,-87.631399,"North Clark Street, Chicago","{'addr:city': 'Chicago', 'addr:housenumber': '534', 'addr:postcode': '60654', 'addr:state': 'IL', 'addr:street': 'North Clark Street', 'amenity': 'restaurant', 'cuisine': 'french;fine_dining', 'name': 'Brindille', 'opening_hours': 'Mo-Sa 17:00-23:00', 'phone': '+1-312-595-1616', 'website': 'https://brindille-chicago.com/'}"
CAVA,41.8890557,-87.633264,"West Kinzie Street, Chicago","{'addr:city': 'Chicago', 'addr:housenumber': '155', 'addr:postcode': '60654', 'addr:state': 'IL', 'addr:street': 'West Kinzie Street', 'amenity': 'restaurant', 'brand': 'CAVA', 'brand:wikidata': 'Q85751038', 'cuisine': 'mediterranean', 'name': 'CAVA', 'opening_hours': 'Fr 23:00-02:00; Sa 23:00-03:00', 'phone': '+1-773-348-8899'}"
Da Lobsta,41.8897504,-87.6313436,"North Clark Street, Chicago","{'addr:city': 'Chicago', 'addr:housenumber': '416', 'addr:postcode': '60654', 'addr:state': 'IL', 'addr:street': 'North Clark Street', 'amenity': 'restaurant', 'cuisine': 'seafood;american', 'name': 'Da Lobsta', 'opening_hours': 'Mo-Su 11:00-21:00', 'phone': '+1-312-955-0894', 'website': 'https://www.dalobsta.com/'}"
Doc B's Fresh Kitchen - River North,41.8915913,-87.6263144,"East Grand Avenue, Chicago","{'addr:city': 'Chicago', 'addr:housenumber': '55', 'addr:postcode': '60611', 'addr:state': 'IL', 'addr:street': 'East Grand Avenue', 'amenity': 'restaurant', 'cuisine': 'american', 'name': ""Doc B's Fresh Kitchen - River North"", 'opening_hours': 'Mo-Sa 11:00-22:00; Su 11:00-21:00', 'phone': '+1-312-999-9300', 'website': 'https://docbsfreshkitchen.com/'}"
M Burger,41.8931177,-87.6285875,"West Ontario Street, Chicago","{'addr:city': 'Chicago', 'addr:housenumber': '5', 'addr:postcode': '60654', 'addr:state': 'IL', 'addr:street': 'West Ontario Street', 'amenity': 'restaurant', 'cuisine': 'american;burger', 'name': 'M Burger', 'opening_hours': 'Su-Th 11:00-21:00; Fr-Sa 11:00-22:00', 'phone': '+1-312-428-3548', 'website': 'http://mburgerchicago.com/'}"
Freshii,41.8886403,-87.6328667,"North LaSalle Drive, Chicago","{'addr:city': 'Chicago', 'addr:housenumber': '350', 'addr:postcode': '60654', 'addr:state': 'IL', 'addr:street': 'North LaSalle Drive', 'amenity': 'restaurant', 'brand': 'Freshii', 'brand:wikidata': 'Q5503051', 'cuisine': 'salad', 'name': 'Freshii', 'opening_hours': 'Mo-Fr 07:00-21:00', 'phone': '+1-312-836-0160', 'website': 'https://www.freshii.com/'}"
IL Porcellino,41.8898275,-87.6302615,"West Hubbard Street, Chicago","{'addr:city': 'Chicago', 'addr:housenumber': '59', 'addr:postcode': '60654', 'addr:state': 'IL', 'addr:street': 'West Hubbard Street', 'addr:unit': '1', 'amenity': 'restaurant', 'cuisine': 'pasta;italian', 'name': 'IL Porcellino', 'opening_hours': 'Mo-We 16:00-23:00; Th-Sa 16:00-00:00; Su 16:00-22:00', 'phone': '+1-312-595-0800', 'website': 'http://ilporcellinochicago.com/'}"
Ironside Bar & Galley,41.8921561,-87.6342686,"North Wells Street, Chicago","{'addr:city': 'Chicago', 'addr:housenumber': '546', 'addr:postcode': '60654', 'addr:state': 'IL', 'addr:street': 'North Wells Street', 'amenity': 'restaurant', 'cuisine': 'american', 'name': 'Ironside Bar & Galley', 'opening_hours': 'Mo 16:00-02:00; Tu-Fr 11:30-02:00; Sa-Su 11:00-03:00', 'phone': '+1-312-973-7792', 'website': 'https://ironsidechicago.com/'}"
Katana,41.8885135,-87.6293075,"North Dearborn Street, Chicago","{'addr:city': 'Chicago', 'addr:housenumber': '339', 'addr:postcode': '60654', 'addr:state': 'IL', 'addr:street': 'North Dearborn Street', 'amenity': 'restaurant', 'cuisine': 'japanese;sushi', 'name': 'Katana', 'opening_hours': 'Mo-Fr 11:30-14:30; Su-Tu 17:00-22:00; We-Th 17:00-22:30; Fr-Sa 17:00-00:00', 'phone': '+1-312-877-5544', 'website': 'https://www.innovativedining.com/restaurants/katana'}"
NAHA,41.8909981,-87.6314417,"North Clark Street, Chicago","{'addr:city': 'Chicago', 'addr:housenumber': '500', 'addr:postcode': '60654', 'addr:state': 'IL', 'addr:street': 'North Clark Street', 'amenity': 'restaurant', 'cuisine': 'middle_eastern', 'name': 'NAHA', 'opening_hours': 'Mo-Th 17:00-21:30; Tu-Fr 11:00-14:00; Fr-Sa 17:00-22:00', 'phone': '+1-312-321-6242', 'website': 'http://naha-chicago.com/#&panel1-1'}"
Osteria Via Stato,41.8931024,-87.6283685,"North State Street, Chicago","{'addr:city': 'Chicago', 'addr:housenumber': '620', 'addr:postcode': '60654', 'addr:state': 'IL', 'addr:street': 'North State Street', 'amenity': 'restaurant', 'cuisine': 'italian', 'name': 'Osteria Via Stato', 'opening_hours': 'Mo-Th 11:30-22:00; Fr-Sa 11:30-23:00; Su 11:30-21:30', 'phone': '+1-312-642-8450', 'website': 'http://osteriaviastato.com/'}"
Pizzeria Ora Chicago,41.8922256,-87.6322873,"North LaSalle Drive, Chicago","{'addr:city': 'Chicago', 'addr:housenumber': '545', 'addr:postcode': '60654', 'addr:state': 'IL', 'addr:street': 'North LaSalle Drive', 'amenity': 'restaurant', 'cuisine': 'pizza;regional', 'name': 'Pizzeria Ora Chicago', 'opening_hours': 'Mo-Su 06:30-00:00', 'phone': '+1-312-464-1872', 'website': 'http://www.pizzeriaora.com/', 'wheelchair': 'no'}"
Protein Bar,41.8888733,-87.6312366,"North Clark Street, Chicago","{'addr:city': 'Chicago', 'addr:housenumber': '352', 'addr:postcode': '60654', 'addr:state': 'IL', 'addr:street': 'North Clark Street', 'amenity': 'restaurant', 'check_date': '2023-08-07', 'cuisine': 'american', 'name': 'Protein Bar', 'opening_hours': 'Mo-Th 07:00-20:00; Fr 07:00-18:00; Sa-Su 09:00-17:00', 'phone': '+1-312-527-0450', 'website': 'https://www.theproteinbar.com/'}"
Safehouse Chicago,41.8934973,-87.6259171,"East Ontario Street, Chicago","{'addr:city': 'Chicago', 'addr:housenumber': '60', 'addr:postcode': '60611', 'addr:state': 'IL', 'addr:street': 'East Ontario Street', 'amenity': 'restaurant', 'cuisine': 'american', 'name': 'Safehouse Chicago', 'phone': '+1 312-313-1007', 'website': 'https://www.safehousechicago.com/'}"
STK Chicago,41.8891471,-87.6285576,"West Kinzie Street, Chicago","{'addr:city': 'Chicago', 'addr:housenumber': '9', 'addr:postcode': '60654', 'addr:state': 'IL', 'addr:street': 'West Kinzie Street', 'amenity': 'restaurant', 'cuisine': 'steak_house;steak;seafood;fine_dining', 'name': 'STK Chicago', 'opening_hours': 'Su-Mo 17:00-22:00; Tu-Th 17:00-23:00; Fr-Sa 17:00-00:00', 'phone': '+1-312-340-5636', 'website': 'https://togrp.com/venue/stk-chicago/'}"
Sushi-san,41.8914679,-87.6304875,"West Grand Avenue, Chicago","{'addr:city': 'Chicago', 'addr:housenumber': '63', 'addr:postcode': '60654', 'addr:state': 'IL', 'addr:street': 'West Grand Avenue', 'amenity': 'restaurant', 'cuisine': 'sushi;japanese', 'name': 'Sushi-san', 'opening_hours': 'Su-Th 16:00-00:00; Fr-Sa 16:00-01:00', 'phone': '+1-312-828-0575', 'website': 'http://sushisanrestaurant.com/'}"
Taketei Sushi River North,41.894668,-87.6316181,"West Huron Street, Chicago","{'addr:city': 'Chicago', 'addr:housenumber': '111', 'addr:postcode': '60654', 'addr:state': 'IL', 'addr:street': 'West Huron Street', 'amenity': 'restaurant', 'cuisine': 'sushi;japanese', 'name': 'Taketei Sushi River North', 'opening_hours': 'Mo-Su 17:00-22:00', 'phone': '+1-312-202-9900', 'website': 'https://www.taketeisushi.com/'}"
Travelle Kitchen + Bar,41.8885765,-87.6275978,"North Wabash Avenue, Chicago","{'addr:city': 'Chicago', 'addr:housenumber': '330', 'addr:postcode': '60611', 'addr:state': 'IL', 'addr:street': 'North Wabash Avenue', 'amenity': 'restaurant', 'cuisine': 'american', 'name': 'Travelle Kitchen + Bar', 'opening_hours': 'Mo-Fr 06:30-00:00; Sa-Su 07:00-00:00', 'phone': '+1-312-923-7705', 'website': 'https://www.travellechicago.com/'}"
Troquet River North,41.8946715,-87.631559,"West Huron Street, Chicago","{'addr:city': 'Chicago', 'addr:housenumber': '111', 'addr:postcode': '60654', 'addr:state': 'IL', 'addr:street': 'West Huron Street', 'amenity': 'restaurant', 'cuisine': 'french', 'name': 'Troquet River North', 'opening_hours': 'Mo-Th 07:00-23:00; Fr-Sa 07:00-00:00; Su 07:00-22:00', 'phone': '+1-312-202-9900', 'website': 'https://www.troquetrivernorth.com/'}"
Ovie Bar & Grill,41.8841928,-87.63997,"North Canal Street, Chicago","{'addr:city': 'Chicago', 'addr:housenumber': '120', 'addr:postcode': '60661', 'addr:state': 'IL', 'addr:street': 'North Canal Street', 'amenity': 'restaurant', 'cuisine': 'american', 'name': 'Ovie Bar & Grill', 'opening_hours': 'Mo-Th 11:00-22:00; Fr 11:00-23:00; Sa 19:00-02:30', 'phone': '+1-312-902-1111', 'website': 'http://www.oviebarandgrill.com/'}"
Luke's Lobster City Hall,41.884033,-87.6326764,"North LaSalle Drive, Chicago","{'addr:city': 'Chicago', 'addr:housenumber': '134', 'addr:postcode': '60602', 'addr:state': 'IL', 'addr:street': 'North LaSalle Drive', 'amenity': 'restaurant', 'cuisine': 'seafood;american', 'name': ""Luke's Lobster City Hall"", 'opening_hours': 'Mo-Fr 11:00-21:00; Sa-Su 12:00-20:00', 'phone': '+1-312-982-2977', 'website': 'https://www.lukeslobster.com/location/chicago/', 'wheelchair': 'limited'}"
IDOF - I Dream of Falafel,41.8803617,-87.6413837,"West Monroe Street, Chicago","{'addr:city': 'Chicago', 'addr:housenumber': '555', 'addr:postcode': '60661', 'addr:state': 'IL', 'addr:street': 'West Monroe Street', 'amenity': 'restaurant', 'cuisine': 'mediterranean', 'name': 'IDOF - I Dream of Falafel', 'opening_hours': 'Mo-Fr 10:30-20:00', 'phone': '+1-312-559-3333', 'website': 'http://www.idreamoffalafel.com/locations/chicago/'}"
Blaze Pizza,41.8810817,-87.6413762,"South Clinton Street, Chicago","{'addr:city': 'Chicago', 'addr:housenumber': '24', 'addr:postcode': '60661', 'addr:state': 'IL', 'addr:street': 'South Clinton Street', 'amenity': 'restaurant', 'brand': 'Blaze Pizza', 'brand:wikidata': 'Q23016666', 'cuisine': 'pizza', 'name': 'Blaze Pizza', 'opening_hours': 'Mo-Fr 10:30-20:00; Sa-Su 12:00-19:00', 'phone': '+1-312-766-1089', 'website': 'http://www.blazepizza.com/'}"
Beggars Pizza,41.8777587,-87.6412857,"South Clinton Street, Chicago","{'addr:city': 'Chicago', 'addr:housenumber': '310', 'addr:postcode': '60661', 'addr:state': 'IL', 'addr:street': 'South Clinton Street', 'amenity': 'restaurant', 'branch': 'West Loop', 'brand': 'Beggars Pizza', 'brand:wikidata': 'Q113946029', 'cuisine': 'pizza', 'internet_access': 'wlan', 'name': 'Beggars Pizza', 'opening_hours': 'Mo-Th 11:00-22:30; Fr-Sa 11:00-00:00; Su 11:00-22:00', 'phone': '+1 312-588-0055', 'takeaway': 'yes', 'website': 'https://www.beggarspizza.com/'}"
Chicago Raw,41.8843074,-87.6405879,"North Clinton Street, Chicago","{'addr:city': 'Chicago', 'addr:housenumber': '131', 'addr:postcode': '60661', 'addr:state': 'IL', 'addr:street': 'North Clinton Street', 'addr:unit': '7', 'amenity': 'restaurant', 'diet:vegan': 'only', 'name': 'Chicago Raw', 'opening_hours': 'Mo-Fr 07:00-19:30; Sa 08:30-17:30', 'phone': '+1-312-831-2729', 'website': 'https://www.chicagorawfood.com/'}"
Buen Apetito,41.8839579,-87.6408669,"North Clinton Street, Chicago","{'addr:city': 'Chicago', 'addr:housenumber': '131', 'addr:postcode': '60661', 'addr:state': 'IL', 'addr:street': 'North Clinton Street', 'amenity': 'restaurant', 'cuisine': 'mexican', 'name': 'Buen Apetito', 'opening_hours': 'Mo-Fr 09:00-18:30; Sa 10:00-16:00', 'phone': '+1-312-234-9600'}"
Cochon Volant Brasserie,41.8808872,-87.6310148,"West Monroe Street, Chicago","{'addr:city': 'Chicago', 'addr:housenumber': '100', 'addr:postcode': '60603', 'addr:state': 'IL', 'addr:street': 'West Monroe Street', 'amenity': 'restaurant', 'cuisine': 'french', 'name': 'Cochon Volant Brasserie', 'opening_hours': 'Mo-Fr 06:30-23:00; Sa-Su 07:30-23:00', 'outdoor_seating': 'no', 'phone': '+1-312-754-6560', 'website': 'https://www.cochonvolantchicago.com/'}"
FliP Crepes,41.883901,-87.6409288,"North Clinton Street, Chicago","{'addr:city': 'Chicago', 'addr:housenumber': '131', 'addr:postcode': '60661', 'addr:state': 'IL', 'addr:street': 'North Clinton Street', 'addr:unit': '12', 'amenity': 'restaurant', 'cuisine': 'breakfast;french', 'name': 'FliP Crepes', 'opening_hours': 'Mo-We 07:00-19:00; Th 10:00-18:30; Fr 07:00-19:00; Sa 09:00-16:00', 'phone': '+1-888-808-3547', 'website': 'https://flipcrepes.com/'}"
Gibsons Italia,41.8863297,-87.6401044,"North Canal Street, Chicago","{'addr:city': 'Chicago', 'addr:housenumber': '233', 'addr:postcode': '60606', 'addr:state': 'IL', 'addr:street': 'North Canal Street', 'amenity': 'restaurant', 'cuisine': 'italian', 'name': 'Gibsons Italia', 'opening_hours': 'Mo-Sa 11:00-00:00', 'phone': '+1-312-414-1100', 'website': 'https://gibsonsitalia.com/'}"
Venice Cafe,41.8807756,-87.6406322,"West Monroe Street, Chicago","{'addr:city': 'Chicago', 'addr:housenumber': '500', 'addr:postcode': '60661', 'addr:state': 'IL', 'addr:street': 'West Monroe Street', 'amenity': 'restaurant', 'cuisine': 'american', 'name': 'Venice Cafe', 'opening_hours': 'Mo-Fr 07:00-15:00', 'phone': '+1-312-258-0925', 'website': 'http://www.venicecafechicago.com/'}"
Yolk - West Loop,41.8823378,-87.6403109,"West Madison Street, Chicago","{'addr:city': 'Chicago', 'addr:housenumber': '500', 'addr:postcode': '60661', 'addr:state': 'IL', 'addr:street': 'West Madison Street', 'amenity': 'restaurant', 'cuisine': 'brunch;breakfast;american;lunch', 'name': 'Yolk - West Loop', 'opening_hours': 'Mo-Fr 06:00-15:00; Sa-Su 07:00-15:00', 'phone': '+1-312-454-9655', 'website': 'https://www.eatyolk.com/'}"
La Petit Folie,41.7955036,-87.5886172,"N/A, N/A","{'amenity': 'restaurant', 'name': 'La Petit Folie', 'opening_hours': 'closed'}"
Taco Madre,41.871182,-87.6273227,"South State Street, Chicago","{'addr:city': 'Chicago', 'addr:housenumber': '823', 'addr:postcode': '60605', 'addr:state': 'IL', 'addr:street': 'South State Street', 'amenity': 'restaurant', 'cuisine': 'mexican', 'name': 'Taco Madre', 'opening_hours': 'Su-Th 11:00-23:00; Fr-Sa 11:00-01:00'}"
Chi Cafe,41.853545,-87.6345564,"South Archer Avenue, Chicago","{'addr:city': 'Chicago', 'addr:housenumber': '2160', 'addr:postcode': '60616', 'addr:state': 'IL', 'addr:street': 'South Archer Avenue', 'amenity': 'restaurant', 'cuisine': 'chinese', 'name': 'Chi Cafe', 'opening_hours': '16:00-02:00', 'phone': '+1-312-842-9993', 'website': 'https://www.chicafeonline.com/'}"
437 Rush,41.8904253,-87.6251166,"N/A, N/A","{'amenity': 'restaurant', 'name': '437 Rush'}"
Naf Naf Grill,41.8812924,-87.6413733,"South Clinton Street, Chicago","{'addr:city': 'Chicago', 'addr:postcode': '60661', 'addr:state': 'IL', 'addr:street': 'South Clinton Street', 'amenity': 'restaurant', 'brand': 'Naf Naf Grill', 'brand:wikidata': 'Q111901442', 'cuisine': 'middle_eastern', 'name': 'Naf Naf Grill'}"
The Original Pancake House,41.8098666,-87.5931455,"East 47th Street, Chicago","{'addr:city': 'Chicago', 'addr:housenumber': '1358', 'addr:postcode': '60653', 'addr:state': 'IL', 'addr:street': 'East 47th Street', 'amenity': 'restaurant', 'brand': 'The Original Pancake House', 'brand:wikidata': 'Q7755384', 'cuisine': 'breakfast;pancake', 'name': 'The Original Pancake House', 'website': 'https://www.ophchicagoland.com/hyde-park/'}"
Virtue,41.7996677,-87.5893002,"East 53rd Street, Chicago","{'addr:city': 'Chicago', 'addr:housenumber': '1462', 'addr:postcode': '60615', 'addr:state': 'IL', 'addr:street': 'East 53rd Street', 'amenity': 'restaurant', 'cuisine': 'southern', 'name': 'Virtue', 'phone': '+1-773-947-8831', 'website': 'https://www.virtuerestaurant.com'}"
O'Brien's,41.8880324,-87.6260205,"N/A, N/A","{'amenity': 'restaurant', 'name': ""O'Brien's""}"
Nando's,41.8931636,-87.6215926,"N/A, N/A","{'addr:housenumber': '227', 'amenity': 'restaurant', 'brand': ""Nando's"", 'brand:wikidata': 'Q3472954', 'cuisine': 'chicken;portuguese', 'name': ""Nando's"", 'website': 'https://www.nandosperiperi.com/find/streeterville/'}"
Sitdown Cafe and Sushi Bar,41.799642,-87.5943698,"East 53rd Street, Chicago","{'addr:city': 'Chicago', 'addr:housenumber': '1312', 'addr:postcode': '60615', 'addr:state': 'IL', 'addr:street': 'East 53rd Street', 'amenity': 'restaurant', 'cuisine': 'pizza;italian;japanese;sandwich', 'name': 'Sitdown Cafe and Sushi Bar', 'outdoor_seating': 'yes'}"
Nella Pizza e Pasta,41.7948754,-87.5987636,"East 55th Street, Chicago","{'addr:city': 'Chicago', 'addr:housenumber': '1125', 'addr:postcode': '60637', 'addr:state': 'IL', 'addr:street': 'East 55th Street', 'amenity': 'restaurant', 'cuisine': 'italian;pizza', 'name': 'Nella Pizza e Pasta', 'website': 'https://nellachicago.com/'}"
Quantum Cafe,41.7921103,-87.6016611,"N/A, N/A","{'amenity': 'restaurant', 'name': 'Quantum Cafe'}"
Beatnik On The River,41.8854389,-87.6372981,"North Wacker Drive, Chicago","{'addr:city': 'Chicago', 'addr:housenumber': '180', 'addr:postcode': '60606', 'addr:state': 'IL', 'addr:street': 'North Wacker Drive', 'amenity': 'restaurant', 'name': 'Beatnik On The River', 'opening_hours': 'Mo-Fr 11:00-22:00', 'phone': '+1-312-526-3345', 'website': 'https://www.beatnikontheriver.com'}"
Chiya Chai,41.8819871,-87.6248866,"East Madison Street, Chicago","{'addr:city': 'Chicago', 'addr:housenumber': '79', 'addr:postcode': '60602', 'addr:state': 'IL', 'addr:street': 'East Madison Street', 'amenity': 'restaurant', 'cuisine': 'tea;indian', 'name': 'Chiya Chai', 'takeaway': 'yes', 'website': 'https://Chiyachai.com'}"
Gao’s Kabob,41.8523343,-87.6333754,"West 22nd Place, Chicago","{'addr:city': 'Chicago', 'addr:housenumber': '232', 'addr:postcode': '60616', 'addr:state': 'IL', 'addr:street': 'West 22nd Place', 'amenity': 'restaurant', 'cuisine': 'chinese', 'internet_access': 'wlan', 'name': 'Gao’s Kabob', 'opening_hours': 'Mo-Su 17:00-02:00', 'phone': '+1 312 526 3836'}"
Daley's Restaurant,41.780576,-87.6056016,"South Cottage Grove Avenue, Chicago","{'addr:city': 'Chicago', 'addr:housenumber': '6257', 'addr:postcode': '60637', 'addr:state': 'IL', 'addr:street': 'South Cottage Grove Avenue', 'amenity': 'restaurant', 'cuisine': 'american', 'name': ""Daley's Restaurant"", 'website': 'https://www.daleysrestaurant.com/'}"
Wow Bao,41.8863212,-87.6247899,"N/A, N/A","{'amenity': 'restaurant', 'cuisine': 'asian', 'name': 'Wow Bao'}"
Casa Margarita,41.8913101,-87.6120001,"East Illinois Street, Chicago","{'addr:city': 'Chicago', 'addr:housenumber': '580', 'addr:postcode': '60611', 'addr:state': 'IL', 'addr:street': 'East Illinois Street', 'amenity': 'restaurant', 'cuisine': 'mexican', 'name': 'Casa Margarita', 'opening_hours': 'Su-Th 11:00-11:00, Fr,Sa 11:00-24:00'}"
Furama Restaurant,41.8415825,-87.6321476,"South Wentworth Avenue, Chicago","{'addr:city': 'Chicago', 'addr:housenumber': '2828', 'addr:postcode': '60616', 'addr:state': 'IL', 'addr:street': 'South Wentworth Avenue', 'amenity': 'restaurant', 'cuisine': 'asian', 'email': 'edlau6888@yahoo.com', 'name': 'Furama Restaurant', 'operator': 'Eddie Lau & Nancy Lau', 'phone': '+1 312 225 6888'}"
Edie's All Day Cafe & Bar,41.894367,-87.6339595,"North Wells Street, Chicago","{'addr:city': 'Chicago', 'addr:housenumber': '675', 'addr:postcode': '60654', 'addr:state': 'IL', 'addr:street': 'North Wells Street', 'amenity': 'restaurant', 'name': ""Edie's All Day Cafe & Bar"", 'phone': '+1 (312) 626-6574', 'website': 'https://www.ediescafebar.com'}"
Fatpour Tap Works,41.8526635,-87.6226785,"South Indiana Avenue, Chicago","{'addr:city': 'Chicago', 'addr:housenumber': '2206', 'addr:postcode': '60616', 'addr:state': 'IL', 'addr:street': 'South Indiana Avenue', 'amenity': 'restaurant', 'name': 'Fatpour Tap Works', 'name:en': 'Fatpour (McCormick)', 'opening_hours': 'Sa,Su 10:00-02:00, Mo-Fr 11:00-02:00', 'phone': '+1-312-878-9292', 'website': 'https://www.fatpourmccormick.com/'}"
Avec (River North),41.8937721,-87.6329701,"West Erie Street, Chicago","{'addr:city': 'Chicago', 'addr:housenumber': '141', 'addr:postcode': '60654', 'addr:state': 'IL', 'addr:street': 'West Erie Street', 'amenity': 'restaurant', 'cuisine': 'french', 'name': 'Avec (River North)', 'phone': '+1-312-736-1778', 'website': 'https://www.avecrestaurant.com/reservations-river-north', 'wheelchair': 'yes'}"
Land & Lake Kitchen,41.8877725,-87.625499,"East Wacker Drive, Chicago","{'addr:city': 'Chicago', 'addr:housenumber': '81', 'addr:postcode': '60601', 'addr:state': 'IL', 'addr:street': 'East Wacker Drive', 'amenity': 'restaurant', 'cuisine': 'american', 'name': 'Land & Lake Kitchen', 'opening_hours': 'Mo-Fr 06:30-22:00; Sa-Su 07:00-22:00', 'phone': '+1-312-253-2337', 'website': 'https://www.landlkitchen.com'}"
Fisk & Co.,41.886534,-87.626108,"North Wabash Avenue, Chicago","{'addr:city': 'Chicago', 'addr:housenumber': '225', 'addr:postcode': '60601', 'addr:state': 'IL', 'addr:street': 'North Wabash Avenue', 'amenity': 'restaurant', 'cuisine': 'seafood;beer;bar;american', 'name': 'Fisk & Co.', 'opening_hours': 'Su-Mo 17:00-21:00; Tu-Th 17:00-22:00; Fr-Sa 17:00-23:00', 'phone': '+1-312-236-9300', 'website': 'https://www.fiskandcochicago.com'}"
Chuckies Grill,41.7588656,-87.5909705,"East 75th Street, Chicago","{'addr:city': 'Chicago', 'addr:housenumber': '1358', 'addr:postcode': '60619', 'addr:state': 'IL', 'addr:street': 'East 75th Street', 'amenity': 'restaurant', 'name': 'Chuckies Grill'}"
Babas Halal,41.7777448,-87.6154163,"South Doctor Martin Luther King Junior Drive, Chicago","{'addr:city': 'Chicago', 'addr:housenumber': '6421', 'addr:postcode': '60637', 'addr:state': 'IL', 'addr:street': 'South Doctor Martin Luther King Junior Drive', 'amenity': 'restaurant', 'name': 'Babas Halal'}"
2 Potz & A Pan Eatery,41.7842154,-87.6133961,"South Eberhart Avenue, Chicago","{'addr:city': 'Chicago', 'addr:housenumber': '6052', 'addr:postcode': '60637', 'addr:state': 'IL', 'addr:street': 'South Eberhart Avenue', 'amenity': 'restaurant', 'name': '2 Potz & A Pan Eatery'}"
Beatrix Market,41.8849259,-87.6366541,"North Wacker Drive, Chicago","{'addr:city': 'Chicago', 'addr:housenumber': '155', 'addr:postcode': '60606', 'addr:state': 'IL', 'addr:street': 'North Wacker Drive', 'amenity': 'restaurant', 'check_date': '2023-08-07', 'name': 'Beatrix Market', 'outdoor_seating': 'no', 'phone': '+1 (312) 629-0025', 'smoking': 'no', 'website': 'http://beatrixrestaurants.com/beatrix-market/loop/'}"
Market Creations,41.8860808,-87.6396188,"West Lake Street, Chicago","{'addr:city': 'Chicago', 'addr:housenumber': '444', 'addr:postcode': '60606', 'addr:state': 'IL', 'addr:street': 'West Lake Street', 'amenity': 'restaurant', 'name': 'Market Creations', 'website': 'http://marketcreationscafe.com'}"
MingHin Cuisine,41.8533599,-87.6348285,"South Archer Avenue, Chicago","{'addr:city': 'Chicago', 'addr:housenumber': '2168', 'addr:postcode': '60616', 'addr:state': 'IL', 'addr:street': 'South Archer Avenue', 'amenity': 'restaurant', 'branch': 'Chinatown', 'cuisine': 'chinese', 'name': 'MingHin Cuisine', 'phone': '+1-312-808-1999', 'website': 'https://www.minghincuisine.com/'}"
Lotus Bahn Mi,41.8833459,-87.6330464,"West Washington Street, Chicago","{'addr:city': 'Chicago', 'addr:housenumber': '166', 'addr:postcode': '60602', 'addr:state': 'IL', 'addr:street': 'West Washington Street', 'amenity': 'restaurant', 'cuisine': 'vietnamese', 'delivery': 'yes', 'name': 'Lotus Bahn Mi', 'opening_hours': 'Mo-Fr 11:00-15:00', 'outdoor_seating': 'no', 'smoking': 'no', 'takeaway': 'yes', 'wheelchair': 'yes'}"
AceBounce,41.8865115,-87.6311851,"North Clark Street, Chicago","{'addr:city': 'Chicago', 'addr:housenumber': '230', 'addr:postcode': '60601', 'addr:state': 'IL', 'addr:street': 'North Clark Street', 'amenity': 'restaurant', 'name': 'AceBounce', 'phone': '+1-773-219-0900', 'website': 'https://acebounce.com/1901-restaurant'}"
312 Chicago,41.8843343,-87.6326876,"North LaSalle Street, Chicago","{'addr:city': 'Chicago', 'addr:housenumber': '136', 'addr:postcode': '60602', 'addr:state': 'IL', 'addr:street': 'North LaSalle Street', 'amenity': 'restaurant', 'cuisine': 'american', 'name': '312 Chicago', 'phone': '+1-312-696-2420', 'website': 'https://312chicago.com/'}"
676 Restaurant & Bar,41.8945559,-87.6247046,"North Michigan Avenue, Chicago","{'addr:city': 'Chicago', 'addr:housenumber': '676', 'addr:postcode': '60611', 'addr:state': 'IL', 'addr:street': 'North Michigan Avenue', 'amenity': 'restaurant', 'name': '676 Restaurant & Bar', 'phone': '+1-312-944-6664 ext 59', 'website': 'http://676restaurant.com/'}"
About Last Knife,41.8851217,-87.6247625,"North Michigan Avenue, Chicago","{'addr:city': 'Chicago', 'addr:housenumber': '168', 'addr:postcode': '60601', 'addr:state': 'IL', 'addr:street': 'North Michigan Avenue', 'amenity': 'restaurant', 'name': 'About Last Knife', 'outdoor_seating': 'no', 'phone': '+1-312-392-2440', 'website': 'https://alkchicago.com/'}"
Entrée,41.859079,-87.6252706,"South Wabash Avenue, Chicago","{'addr:city': 'Chicago', 'addr:housenumber': '1639', 'addr:postcode': '60616', 'addr:state': 'IL', 'addr:street': 'South Wabash Avenue', 'amenity': 'restaurant', 'check_date': '2023-08-22', 'cuisine': 'american', 'name': 'Entrée', 'phone': '+1-312-360-9500', 'website': 'https://acadiachicago.com'}"
320 River Bar,41.8880886,-87.6300745,"North Dearborn Street, Chicago","{'addr:city': 'Chicago', 'addr:housenumber': '320', 'addr:postcode': '60654', 'addr:state': 'IL', 'addr:street': 'North Dearborn Street', 'amenity': 'restaurant', 'cuisine': 'american', 'name': '320 River Bar', 'opening_hours': 'Mo-Su 11:00-23:00', 'phone': '+1-312-321-7129', 'website': 'https://www.320riverbar.com/'}"
Ara On,41.8797646,-87.6331918,"West Adams Street, Chicago","{'addr:city': 'Chicago', 'addr:housenumber': '160', 'addr:postcode': '60603', 'addr:state': 'IL', 'addr:street': 'West Adams Street', 'amenity': 'restaurant', 'name': 'Ara On', 'phone': '+1-312-781-7300', 'website': 'http://www.ara-on.com/'}"
Arturo Express,41.8795853,-87.6398545,"South Canal Street, Chicago","{'addr:city': 'Chicago', 'addr:housenumber': '130', 'addr:postcode': '60606', 'addr:state': 'IL', 'addr:street': 'South Canal Street', 'amenity': 'restaurant', 'cuisine': 'italian', 'name': 'Arturo Express', 'phone': '+1-312-474-9289', 'website': 'http://www.arturoexpress.com/'}"
Bandera Restaurant,41.8919452,-87.6235734,"North Michigan Avenue, Chicago","{'addr:city': 'Chicago', 'addr:housenumber': '535', 'addr:postcode': '60611', 'addr:state': 'IL', 'addr:street': 'North Michigan Avenue', 'amenity': 'restaurant', 'name': 'Bandera Restaurant', 'phone': '+1-312-644-3524', 'website': 'https://banderarestaurants.com/'}"
Bar Louie,41.8720729,-87.6288361,"West Polk Street, Chicago","{'addr:city': 'Chicago', 'addr:housenumber': '47', 'addr:postcode': '60605', 'addr:state': 'IL', 'addr:street': 'West Polk Street', 'amenity': 'restaurant', 'check_date': '2022-09-16', 'cuisine': 'sandwich;pizza', 'name': 'Bar Louie', 'payment:credit_cards': 'yes', 'phone': '+1-312-347-0000', 'website': 'https://www.barlouie.com/locations/us/il/chicago/printers-row'}"
BienMeSabe Venezuelan Arepa Bar,41.8794043,-87.6264844,"East Adams Street, Chicago","{'addr:city': 'Chicago', 'addr:housenumber': '29', 'addr:postcode': '60603', 'addr:state': 'IL', 'addr:street': 'East Adams Street', 'amenity': 'restaurant', 'cuisine': 'venezuelan;small_plates', 'name': 'BienMeSabe Venezuelan Arepa Bar', 'phone': '+1-312-285-2911', 'website': 'https://bienmesabechicago.com'}"
Blackwood BBQ,41.8809067,-87.6413728,"South Clinton Street, Chicago","{'addr:city': 'Chicago', 'addr:housenumber': '28', 'addr:postcode': '60661', 'addr:state': 'IL', 'addr:street': 'South Clinton Street', 'amenity': 'restaurant', 'name': 'Blackwood BBQ', 'phone': '+1-312-631-3431', 'website': 'https://www.blackwoodbbq.com/'}"
Bonchon Chicken,41.8536025,-87.6349408,"South China Place, Chicago","{'addr:city': 'Chicago', 'addr:housenumber': '2163', 'addr:postcode': '60616', 'addr:state': 'IL', 'addr:street': 'South China Place', 'amenity': 'restaurant', 'branch': 'Chicago Chinatown', 'brand': 'Bonchon Chicken', 'brand:wikidata': 'Q4941248', 'cuisine': 'chicken;korean;sushi', 'name': 'Bonchon Chicken', 'phone': '+1-312-877-5832', 'website': 'https://locations.bonchon.com/ll/US/IL/Chicago/2163-S-China-Pl'}"
Bongiorno’s Italian Deli & Pizzeria,41.8898208,-87.62637,"North Wabash Avenue, Chicago","{'addr:city': 'Chicago', 'addr:housenumber': '405', 'addr:postcode': '60611', 'addr:state': 'IL', 'addr:street': 'North Wabash Avenue', 'amenity': 'restaurant', 'name': 'Bongiorno’s Italian Deli & Pizzeria', 'phone': '+1-312-755-1255', 'website': 'http://www.bongiornoschicago.com/'}"
Boxcar Betty’s,41.8823506,-87.6404069,"West Madison Street, Chicago","{'addr:city': 'Chicago', 'addr:housenumber': '500', 'addr:postcode': '60661', 'addr:state': 'IL', 'addr:street': 'West Madison Street', 'amenity': 'restaurant', 'name': 'Boxcar Betty’s', 'website': 'http://www.boxcarbetty.com/'}"
Brown Bag Seafood,41.8848467,-87.6187821,"Upper East Randolph Street, Chicago","{'addr:city': 'Chicago', 'addr:housenumber': '340', 'addr:postcode': '60601', 'addr:state': 'IL', 'addr:street': 'Upper East Randolph Street', 'amenity': 'restaurant', 'name': 'Brown Bag Seafood', 'phone': '+1-312-496-3999', 'website': 'https://www.brownbagseafood.com/home/'}"
Cafe Moderno,41.8798388,-87.622138,"South Michigan Avenue, Chicago","{'addr:city': 'Chicago', 'addr:housenumber': '111', 'addr:postcode': '60603', 'addr:state': 'IL', 'addr:street': 'South Michigan Avenue', 'amenity': 'restaurant', 'name': 'Cafe Moderno', 'website': 'https://www.cafe-moderno.com/'}"
Billy Goat Tavern - at the MART,41.8888053,-87.6344719,"West Merchandise Mart Plaza, Chicago","{'addr:city': 'Chicago', 'addr:housenumber': '222', 'addr:postcode': '60654', 'addr:state': 'IL', 'addr:street': 'West Merchandise Mart Plaza', 'amenity': 'restaurant', 'name': 'Billy Goat Tavern - at the MART', 'phone': '+1-312-464-1045', 'website': 'https://www.billygoattavern.com/locations/michigan/'}"
Blackwood BBQ,41.8856045,-87.6359257,"West Lake Street, Chicago","{'addr:city': 'Chicago', 'addr:housenumber': '307', 'addr:postcode': '60606', 'addr:state': 'IL', 'addr:street': 'West Lake Street', 'amenity': 'restaurant', 'name': 'Blackwood BBQ', 'phone': '+1-312-621-9663', 'website': 'https://www.blackwoodbbq.com/'}"
Blackwood BBQ - Illinois Center,41.8869672,-87.6232241,"North Michigan Avenue, Chicago","{'addr:city': 'Chicago', 'addr:housenumber': '233', 'addr:postcode': '60601', 'addr:state': 'IL', 'addr:street': 'North Michigan Avenue', 'amenity': 'restaurant', 'cuisine': 'barbecue', 'name': 'Blackwood BBQ - Illinois Center', 'phone': '+1-312-487-4802', 'website': 'https://www.blackwoodbbq.com/'}"
Boleo,41.8808447,-87.6317483,"West Monroe Street, Chicago","{'addr:city': 'Chicago', 'addr:housenumber': '122', 'addr:postcode': '60603', 'addr:state': 'IL', 'addr:street': 'West Monroe Street', 'amenity': 'restaurant', 'name': 'Boleo', 'phone': '+1-312-750-9007', 'website': 'https://www.boleochicago.com/'}"
Catch 35,41.8865361,-87.628485,"West Upper Wacker Drive, Chicago","{'addr:city': 'Chicago', 'addr:housenumber': '35', 'addr:postcode': '60601', 'addr:state': 'IL', 'addr:street': 'West Upper Wacker Drive', 'amenity': 'restaurant', 'cuisine': 'seafood', 'name': 'Catch 35', 'phone': '+1-312-346-3500', 'website': 'https://www.catch35.com/'}"
Cherry Circle Room,41.8816636,-87.6252255,"South Michigan Avenue, Chicago","{'addr:city': 'Chicago', 'addr:housenumber': '12', 'addr:postcode': '60603', 'addr:state': 'IL', 'addr:street': 'South Michigan Avenue', 'amenity': 'restaurant', 'name': 'Cherry Circle Room', 'phone': '+1-312-792-3515', 'website': 'https://www.lsdatcaa.com/'}"
Copper Fox Gastropub,41.8932251,-87.6229122,"East Ontario Street, Chicago","{'addr:city': 'Chicago', 'addr:housenumber': '155', 'addr:postcode': '60611', 'addr:state': 'IL', 'addr:street': 'East Ontario Street', 'amenity': 'restaurant', 'name': 'Copper Fox Gastropub', 'phone': '+1-312-255-8505', 'website': 'https://copperfoxchicago.com/'}"
Do-Rite Donuts & Chicken,41.8940165,-87.6216897,"East Erie Street, Chicago","{'addr:city': 'Chicago', 'addr:housenumber': '233', 'addr:postcode': '60611', 'addr:state': 'IL', 'addr:street': 'East Erie Street', 'amenity': 'restaurant', 'name': 'Do-Rite Donuts & Chicken', 'phone': '+1-312-344-1374', 'website': 'http://doritedonuts.com/'}"
Dolo Restaurant and Bar,41.8525597,-87.6360949,"South Archer Avenue, Chicago","{'addr:city': 'Chicago', 'addr:housenumber': '2222', 'addr:postcode': '60616', 'addr:state': 'IL', 'addr:street': 'South Archer Avenue', 'amenity': 'restaurant', 'cuisine': 'chinese', 'name': 'Dolo Restaurant and Bar', 'phone': '+1-312-877-5117', 'website': 'https://www.dolorestaurant.com/'}"
Fat Fish Bar and Grill,41.8384445,-87.6331359,"West 31st Street, Chicago","{'addr:city': 'Chicago', 'addr:housenumber': '234', 'addr:postcode': '60616', 'addr:state': 'IL', 'addr:street': 'West 31st Street', 'amenity': 'restaurant', 'cuisine': 'seafood', 'name': 'Fat Fish Bar and Grill', 'phone': '+1-312-842-9200', 'website': 'http://orderfatfishbarngrill.com/'}"
Flat Top Grill,41.8811741,-87.6263798,"South Wabash Avenue, Chicago","{'addr:city': 'Chicago', 'addr:housenumber': '30', 'addr:postcode': '60604', 'addr:state': 'IL', 'addr:street': 'South Wabash Avenue', 'amenity': 'restaurant', 'cuisine': 'asian', 'name': 'Flat Top Grill', 'phone': '+1-312-726-8400', 'website': 'https://www.flattopgrill.com/'}"
Flo & Santos,41.865387,-87.6263756,"South Wabash Avenue, Chicago","{'addr:city': 'Chicago', 'addr:housenumber': '1310', 'addr:postcode': '60605', 'addr:state': 'IL', 'addr:street': 'South Wabash Avenue', 'amenity': 'restaurant', 'cuisine': 'pizza', 'name': 'Flo & Santos', 'phone': '+1-312-566-9817', 'website': 'https://floandsantos.com/'}"
Franco’s Ristorante,41.8383786,-87.6343653,"West 31st Street, Chicago","{'addr:city': 'Chicago', 'addr:housenumber': '300', 'addr:postcode': '60616', 'addr:state': 'IL', 'addr:street': 'West 31st Street', 'amenity': 'restaurant', 'cuisine': 'italian', 'name': 'Franco’s Ristorante', 'phone': '+1-312-225-9566', 'website': 'https://www.francoschicago.com/'}"
Frietkoten Belgian Fries & Beer,41.8841694,-87.6410082,"North Clinton Street, Chicago","{'addr:city': 'Chicago', 'addr:housenumber': '131', 'addr:postcode': '60606', 'addr:state': 'IL', 'addr:street': 'North Clinton Street', 'amenity': 'restaurant', 'name': 'Frietkoten Belgian Fries & Beer', 'phone': '+1-312-575-0306', 'website': 'https://frenchmarketchicago.com/vendor/frietkoten-belgian-fries-beer/'}"
Giordano's Pizzeria,41.8850813,-87.6236318,"East Randolph Street, Chicago","{'addr:city': 'Chicago', 'addr:housenumber': '130', 'addr:postcode': '60601', 'addr:state': 'IL', 'addr:street': 'East Randolph Street', 'amenity': 'restaurant', 'brand': ""Giordano's Pizzeria"", 'brand:wikidata': 'Q5563393', 'cuisine': 'pizza', 'name': ""Giordano's Pizzeria"", 'phone': '+1-312-616-1200', 'website': 'https://giordanos.com/locations/prudential-plaza-millenium-park/'}"
Giordano's Pizzeria,41.8918168,-87.6095322,"East Grand Avenue, Chicago","{'addr:city': 'Chicago', 'addr:housenumber': '700', 'addr:postcode': '60611', 'addr:state': 'IL', 'addr:street': 'East Grand Avenue', 'amenity': 'restaurant', 'brand': ""Giordano's Pizzeria"", 'brand:wikidata': 'Q5563393', 'cuisine': 'pizza', 'name': ""Giordano's Pizzeria"", 'opening_hours:covid19': 'closed', 'phone': '+1-312-288-8783', 'website': 'https://giordanos.com/locations/navy-pier/'}"
Go 4 Food,41.8510926,-87.6325921,"West 23rd Street, Chicago","{'addr:city': 'Chicago', 'addr:housenumber': '212', 'addr:postcode': '60616', 'addr:state': 'IL', 'addr:street': 'West 23rd Street', 'amenity': 'restaurant', 'cuisine': 'chinese', 'name': 'Go 4 Food', 'phone': '+1-312-842-8688', 'website': 'https://www.go4foodusa.com/'}"
El Greco's Burritos,41.8796241,-87.6267974,"East Adams Street, Chicago","{'addr:city': 'Chicago', 'addr:housenumber': '24', 'addr:postcode': '60603', 'addr:state': 'IL', 'addr:street': 'East Adams Street', 'amenity': 'restaurant', 'cuisine': 'mexican', 'level': '0', 'name': ""El Greco's Burritos"", 'website': 'https://grecosburritos.com', 'wheelchair': 'yes'}"
Harry Caray’s Tavern,41.8918517,-87.6096704,"East Grand Avenue, Chicago","{'addr:city': 'Chicago', 'addr:housenumber': '700', 'addr:postcode': '60611', 'addr:state': 'IL', 'addr:street': 'East Grand Avenue', 'amenity': 'restaurant', 'name': 'Harry Caray’s Tavern', 'phone': '+1-312-527-9700', 'website': 'https://www.harrycarays.com/harry-carays-tavern-navy-pier.html'}"
Heaven on Seven,41.8835361,-87.6258705,"North Wabash Avenue, Chicago","{'addr:city': 'Chicago', 'addr:housenumber': '111', 'addr:postcode': '60602', 'addr:state': 'IL', 'addr:street': 'North Wabash Avenue', 'amenity': 'restaurant', 'cuisine': 'cajun;breakfast;lunch;dinner;casual', 'name': 'Heaven on Seven', 'phone': '+1-312-263-6443', 'website': 'https://www.heavenonseven.com/wabash.html'}"
Hello Jasmine,41.8550842,-87.6320986,"South Wentworth Avenue, Chicago","{'addr:city': 'Chicago', 'addr:housenumber': '2002', 'addr:postcode': '60616', 'addr:state': 'IL', 'addr:street': 'South Wentworth Avenue', 'amenity': 'restaurant', 'cuisine': 'chinese', 'name': 'Hello Jasmine'}"
Himalayan Restaurant,41.8740857,-87.6262217,"South Wabash Avenue, Chicago","{'addr:city': 'Chicago', 'addr:housenumber': '606', 'addr:postcode': '60605', 'addr:state': 'IL', 'addr:street': 'South Wabash Avenue', 'amenity': 'restaurant', 'cuisine': 'indian', 'name': 'Himalayan Restaurant', 'phone': '+1-312-877-5999', 'website': 'https://himalayanrestaurant.com/', 'website:menu': 'https://himalayanrestaurant.com/menu'}"
Nic’s Organic Fast Food,41.8852909,-87.6328346,"North LaSalle Street, Chicago","{'addr:city': 'Chicago', 'addr:housenumber': '180', 'addr:postcode': '60601', 'addr:state': 'IL', 'addr:street': 'North LaSalle Street', 'amenity': 'restaurant', 'name': 'Nic’s Organic Fast Food', 'phone': '866-717-1607', 'website': 'https://cca-advisors.com'}"
